"postal","name","lat","lng"
1000,"Brussel",50.8427501,4.3515499
1020,"Laken",50.8842180,4.3580002
1030,"Schaarbeek",50.8674400,4.3772700
1040,"Etterbeek",50.8325900,4.3889900
1050,"Elsene",50.8270563,4.3723080
1060,"Sint-Gillis",50.8301436,4.3402184
1070,"Anderlecht",50.8365808,4.3081870
1080,"Sint-Jans-Molenbeek",50.8522009,4.3303277
1081,"Koekelberg",50.8633811,4.3303380
1082,"Sint-Agatha-Berchem",50.8657821,4.2925975
1083,"Ganshoren",50.8711300,4.3025300
1090,"Jette",50.8808582,4.3227894
1120,"Neder-Over-Heembeek",50.8962200,4.3718800
1130,"Haren",50.8922905,4.4176727
1140,"Evere",50.8739353,4.4009421
1150,"Sint-Pieters-Woluwe",50.8299809,4.4335038
1160,"Oudergem",50.8164300,4.4264900
1170,"Watermaal-Bosvoorde",50.7881573,4.4180065
1180,"Ukkel",50.8024100,4.3406700
1190,"Vorst",50.8174500,4.3267500
1200,"Sint-Lambrechts-Woluwe",50.8489094,4.4320883
1210,"Sint-Joost-Ten-Noode",50.8537715,4.3704657
1300,"Limal",50.6934506,4.5732954
1300,"Wavre",50.7158951,4.6128257
1301,"Bierges",50.7113795,4.5871684
1310,"La Hulpe",50.7309955,4.4856707
1315,"Glimes",50.6796000,4.8377400
1315,"Incourt",50.6918800,4.7966000
1315,"Opprebais",50.6794600,4.7981900
1315,"Piètrebais",50.7279600,4.7638100
1315,"Roux-Miroir",50.7081100,4.7851300
1320,"Beauvechain",50.7586100,4.7683330
1320,"Hamme-Mille",50.7795300,4.7169400
1320,"L'ecluse",50.7718400,4.8318300
1320,"Nodebais",50.7731900,4.7355500
1320,"Tourinnes-La-Grosse",50.7828100,4.7444500
1325,"Bonlez",50.7019300,4.6894800
1325,"Chaumont-Gistoux",50.6768700,4.7194300
1325,"Corroy-Le-Grand",50.6620600,4.6745800
1325,"Dion-Valmont",50.6974838,4.6588254
1325,"Longueville",50.7023100,4.7401400
1330,"Rixensart",50.7109736,4.5306325
1331,"Rosières",50.7301500,4.5444100
1332,"Genval",50.7211000,4.4938800
1340,"Ottignies",50.6654650,4.5669046
1340,"Ottignies-Louvain-La-Neuve",50.6672105,4.5859684
1341,"Céroux-Mousty",50.6603690,4.5204882
1342,"Limelette",50.6703046,4.5659574
1348,"Louvain-La-Neuve",50.6680810,4.6118324
1350,"Enines",50.6936600,4.9265500
1350,"Folx-Les-Caves",50.6604200,4.9376000
1350,"Jandrain-Jandrenouille",50.6736800,4.9796900
1350,"Jauche",50.6829800,4.9547000
1350,"Marilles",50.7071600,4.9527400
1350,"Noduwez",50.7296034,4.9638247
1350,"Orp-Jauche",50.6829800,4.9547000
1350,"Orp-Le-Grand",50.7038000,4.9907420
1357,"HÉlÉcine",50.7497791,4.9829359
1357,"Linsmeau",50.7335692,5.0029743
1357,"Neerheylissem",50.7551532,4.9872002
1357,"Opheylissem",50.7477492,4.9774665
1360,"Malèves-Sainte-Marie-Wastines",50.6550300,4.7794300
1360,"Orbais",50.6375700,4.7632300
1360,"Perwez",50.6239500,4.8150300
1360,"Thorembais-Les-Béguines",50.6579900,4.8172800
1360,"Thorembais-Saint-Trond",50.6346500,4.7864600
1367,"Autre-Eglise",50.6692600,4.9037500
1367,"Bomal",50.6711000,4.8733200
1367,"Geest-Gérompont-Petit-Rosière",50.6408800,4.8574400
1367,"Gérompont",50.6484700,4.8816900
1367,"Grand-Rosière-Hottomont",50.6319864,4.8661554
1367,"Huppaye",50.6934700,4.8938300
1367,"Mont-Saint-André",50.6552400,4.8645100
1367,"Ramillies",50.6367900,4.9145100
1370,"Dongelberg",50.7033800,4.8200700
1370,"Jauchelette",50.6863100,4.8435800
1370,"Jodoigne",50.7233600,4.8711500
1370,"Jodoigne-Souveraine",50.7089800,4.8367800
1370,"Lathuy",50.7236600,4.8261300
1370,"Mélin",50.7397900,4.8285200
1370,"Piétrain",50.7247600,4.9207000
1370,"Saint-Jean-Geest",50.7396400,4.8954800
1370,"Saint-Remy-Geest",50.7463600,4.8601900
1370,"Zétrud-Lumay",50.7579200,4.8859000
1380,"Couture-Saint-Germain",50.6750200,4.4725200
1380,"Lasne",50.6873600,4.4813500
1380,"Lasne-Chapelle-Saint-Lambert",50.6918500,4.5021300
1380,"Maransart",50.6595300,4.4674500
1380,"Ohain",50.6990700,4.4691900
1380,"Plancenoit",50.6619600,4.4286300
1390,"Archennes",50.7524768,4.6698680
1390,"Biez",50.7267436,4.7019841
1390,"Bossut-Gottechain",50.7613181,4.6941056
1390,"Grez-Doiceau",50.7385816,4.6972809
1390,"Nethen",50.7837825,4.6741168
1400,"Monstreux",50.5980300,4.2888400
1400,"Nivelles",50.5886574,4.3308649
1401,"Baulers",50.6134100,4.3538700
1402,"Thines",50.5973400,4.3684600
1404,"Bornival",50.6011653,4.2762763
1410,"Waterloo",50.7146900,4.3991000
1420,"Braine-L'alleud",50.6969022,4.3538379
1421,"Ophain-Bois-Seigneur-Isaac",50.6664200,4.3488600
1428,"Lillois-Witterzée",50.6456700,4.3671200
1430,"Bierghes",50.6956998,4.1195104
1430,"Quenast",50.6729162,4.1573320
1430,"Rebecq",50.6658280,4.1326285
1430,"Rebecq-Rognon",50.6659293,4.1326563
1435,"Corbais",50.6462709,4.6553809
1435,"Hévillers",50.6215801,4.6154602
1435,"Mont-Saint-Guibert",50.6347043,4.6106474
1440,"Braine-Le-ChÂteau",50.6802986,4.2689347
1440,"Wauthier-Braine",50.6812100,4.2980600
1450,"Chastre",50.6081300,4.6356900
1450,"Chastre-Villeroux-Blanmont",50.6000000,4.6170000
1450,"Cortil-Noirmont",50.5813600,4.6428400
1450,"Gentinnes",50.5816550,4.6012217
1450,"Saint-Géry",50.5804909,4.6124318
1457,"Nil-Saint-Vincent-Saint-Martin",50.6421400,4.6798200
1457,"Tourinnes-Saint-Lambert",50.6393200,4.7238900
1457,"Walhain",50.6165400,4.6954500
1457,"Walhain-Saint-Paul",50.6327770,4.7025798
1460,"Ittre",50.6326887,4.2632352
1460,"Virginal-Samme",50.6398300,4.2058700
1461,"Haut-Ittre",50.6535700,4.2982500
1470,"Baisy-Thy",50.5969876,4.4760976
1470,"Bousval",50.6149444,4.5051441
1470,"Genappe",50.6108278,4.4503759
1471,"Loupoigne",50.5978099,4.4445799
1472,"Vieux-Genappe",50.6082918,4.4405969
1473,"Glabais",50.6302595,4.4532789
1474,"Ways",50.6104429,4.4644969
1476,"Houtain-Le-Val",50.5829629,4.4113773
1480,"Clabecq",50.6921200,4.2216300
1480,"Oisquercq",50.6698900,4.2198500
1480,"Saintes",50.7061500,4.1581700
1480,"Tubize",50.6905400,4.2026000
1490,"Court-Saint-Etienne",50.6422504,4.5680813
1495,"Marbais",50.5463818,4.5351225
1495,"Mellery",50.5816873,4.5688539
1495,"Sart-Dames-Avelines",50.5685048,4.4917395
1495,"Tilly",50.5614355,4.5490482
1495,"Villers-La-Ville",50.5791942,4.5345409
1500,"Halle",50.7324848,4.2349129
1501,"Buizingen",50.7414190,4.2500475
1502,"Lembeek",50.7140616,4.2200436
1540,"Herfelingen",50.7477711,4.0998655
1540,"Herne",50.7233164,4.0536565
1541,"Sint-Pieters-Kapelle",50.7070524,3.9899741
1547,"Bever",50.7169522,3.9406874
1560,"Hoeilaart",50.7674863,4.4740458
1570,"Galmaarden",50.7529396,3.9709478
1570,"Tollembeek",50.7410978,4.0067750
1570,"Vollezele",50.7607201,4.0252744
1600,"Oudenaken",50.7806800,4.1993800
1600,"Sint-Laureins-Berchem",50.7868100,4.1993800
1600,"Sint-Pieters-Leeuw",50.7842441,4.2427430
1601,"Ruisbroek",50.7903500,4.2986200
1602,"Vlezenbeek",50.8078500,4.2321300
1620,"Drogenbos",50.7875382,4.3164506
1630,"Linkebeek",50.7660264,4.3456087
1640,"Sint-Genesius-Rode",50.7459400,4.3575300
1650,"Beersel",50.7686913,4.3120069
1651,"Lot",50.7677800,4.2770700
1652,"Alsemberg",50.7416300,4.3361300
1653,"Dworp",50.7294900,4.3010900
1654,"Huizingen",50.7465700,4.2736900
1670,"Bogaarden",50.7400000,4.1363200
1670,"Heikruis",50.7350400,4.1121100
1670,"Pepingen",50.7360287,4.1360863
1671,"Elingen",50.7792600,4.1711900
1673,"Beert",50.7410300,4.1818400
1674,"Bellingen",50.7408000,4.1539900
1700,"Dilbeek",50.8464512,4.2620632
1700,"Sint-Martens-Bodegem",50.8614672,4.2128916
1700,"Sint-Ulriks-Kapelle",50.8790042,4.2182047
1701,"Itterbeek",50.8381387,4.2500689
1702,"Groot-Bijgaarden",50.8719066,4.2500012
1703,"Schepdaal",50.8383485,4.1958272
1730,"Asse",50.9054755,4.2048959
1730,"Bekkerzeel",50.8852300,4.2380300
1730,"Kobbegem",50.9086200,4.2510400
1730,"Mollem",50.9313000,4.2263600
1731,"Relegem",50.8990800,4.2770200
1731,"Zellik",50.8844900,4.2740100
1733,"Highco Data",50.8985334,4.2185564
1740,"Ternat",50.8698353,4.1808317
1741,"Wambeek",50.8532484,4.1628356
1742,"Sint-Katherina-Lombeek",50.8732586,4.1559883
1745,"Mazenzele",50.9427890,4.1711583
1745,"Opwijk",50.9715880,4.1869110
1750,"Gaasbeek",50.7998700,4.1889300
1750,"Lennik",50.8086929,4.1614340
1750,"Sint-Kwintens-Lennik",50.8042200,4.1548100
1750,"Sint-Martens-Lennik",50.8127052,4.1686333
1755,"Gooik",50.7952811,4.1180489
1755,"Kester",50.7642800,4.1193500
1755,"Leerbeek",50.7778700,4.1194300
1755,"Oetingen",50.7734700,4.0631200
1760,"Onze-Lieve-Vrouw-Lombeek",50.8197588,4.1101502
1760,"Pamel",50.8449500,4.0710100
1760,"Roosdaal",50.8314294,4.0879776
1760,"Strijtem",50.8412507,4.1173658
1761,"Borchtlombeek",50.8475374,4.1397680
1770,"Liedekerke",50.8689100,4.0872900
1780,"Wemmel",50.9103200,4.3009600
1785,"Brussegem",50.9257400,4.2660800
1785,"Hamme",50.9204200,4.2806100
1785,"Merchtem",50.9584200,4.2324400
1790,"Affligem",50.9084000,4.1128100
1790,"Essene",50.9015743,4.1364265
1790,"Hekelgem",50.9072267,4.1084956
1790,"Teralfene",50.8922688,4.0987022
1800,"Peutie",50.9273610,4.4554420
1800,"Vilvoorde",50.9272511,4.4257868
1804,"Cargovil",50.9472590,4.4272680
1818,"Vtm",50.9136056,4.3981412
1820,"Melsbroek",50.9153500,4.4787175
1820,"Perk",50.9348800,4.4959200
1820,"Steenokkerzeel",50.9079300,4.5134900
1830,"Machelen",50.9125185,4.4376749
1831,"Diegem",50.8940397,4.4362628
1840,"Londerzeel",51.0031100,4.3026000
1840,"Malderen",51.0203300,4.2462900
1840,"Steenhuffel",50.9957700,4.2671600
1850,"Grimbergen",50.9356235,4.3785596
1851,"Humbeek",50.9672327,4.3795118
1852,"Beigem",50.9528364,4.3660653
1853,"Strombeek-Bever",50.9104650,4.3577920
1860,"Meise",50.9478621,4.3302827
1861,"Wolvertem",50.9508800,4.3092700
1880,"Kapelle-Op-Den-Bos",51.0132400,4.3554100
1880,"Nieuwenrode",50.9785700,4.3522900
1880,"Ramsdonk",51.0148300,4.3351900
1910,"Berg",50.9316005,4.5377032
1910,"Buken",50.9403268,4.6169484
1910,"Kampenhout",50.9338827,4.5605498
1910,"Nederokkerzeel",50.9220293,4.5633381
1930,"Nossegem",50.8781921,4.5074739
1930,"Zaventem",50.8795024,4.4826212
1931,"Brucargo",50.9032930,4.4522140
1932,"Sint-Stevens-Woluwe",50.8691972,4.4502354
1933,"Sterrebeek",50.8654294,4.4726200
1934,"Office Exchange Brussels Airport Remailing",50.8969448,4.4843148
1935,"Corporate Village",50.8898980,4.4580055
1950,"Kraainem",50.8610856,4.4592974
1970,"Wezembeek-Oppem",50.8509200,4.4874200
1980,"Eppegem",50.9621231,4.4544329
1980,"Zemst",50.9855350,4.4558340
1981,"Hofstade",50.9916699,4.4924542
1982,"Elewijt",50.9618503,4.4964542
1982,"Weerde",50.9721843,4.4793294
2000,"Antwerpen",51.2198771,4.4011356
2018,"Antwerpen",51.2037695,4.4112637
2020,"Antwerpen",51.1890846,4.3836284
2030,"Antwerpen",51.2763963,4.3624604
2040,"Antwerpen",51.3418306,4.2964605
2040,"Berendrecht",51.3428700,4.3140900
2040,"Lillo",51.3043600,4.2802600
2040,"Zandvliet",51.3596500,4.3071600
2050,"Antwerpen",51.2287575,4.3740221
2060,"Antwerpen",51.2269388,4.4276298
2070,"Burcht",51.2036700,4.3414800
2070,"Zwijndrecht",51.2164116,4.3335905
2099,"Antwerpen X",51.2083343,4.4111603
2100,"Deurne",51.2207104,4.4648012
2110,"Wijnegem",51.2298182,4.5108974
2140,"Borgerhout",51.2143174,4.4348985
2150,"Borsbeek",51.1966684,4.4856299
2160,"Wommelgem",51.2021676,4.5219648
2170,"Merksem",51.2512741,4.4485390
2180,"Ekeren",51.2807314,4.4184495
2200,"Herentals",51.1768785,4.8356480
2200,"Morkhoven",51.1200863,4.8207292
2200,"Noorderwijk",51.1393923,4.8388348
2220,"Hallaar",51.0846400,4.7329300
2220,"Heist-Op-Den-Berg",51.0633847,4.7210601
2221,"Booischot",51.0515100,4.7752300
2222,"Itegem",51.1032100,4.7292700
2222,"Wiekevorst",51.1091400,4.7944915
2223,"Schriek",51.0274500,4.6927200
2230,"Herselt",51.0523800,4.8806800
2230,"Ramsel",51.0321100,4.8328000
2235,"Houtvenne",51.0420800,4.8089400
2235,"Hulshout",51.0647242,4.8165080
2235,"Westmeerbeek",51.0603200,4.8351000
2240,"Massenhoven",51.1986273,4.6364247
2240,"Viersel",51.1890184,4.6523097
2240,"Zandhoven",51.2021793,4.6554212
2242,"Pulderbos",51.2165685,4.6919000
2243,"Pulle",51.2032977,4.7137397
2250,"Olen",51.1440245,4.8599119
2260,"Oevel",51.1387198,4.9042615
2260,"Tongerlo",51.1053300,4.9156500
2260,"Westerlo",51.0899524,4.9143395
2260,"Zoerle-Parwijs",51.0887900,4.8689400
2270,"Herenthout",51.1394506,4.7564892
2275,"Gierle",51.2671512,4.8677063
2275,"Lille",51.2420452,4.8232254
2275,"Poederlee",51.2263125,4.8353147
2275,"Wechelderzande",51.2645356,4.7999275
2280,"Grobbendonk",51.1832616,4.7349959
2288,"Bouwel",51.1719684,4.7420582
2290,"Vorselaar",51.2025247,4.7708827
2300,"Turnhout",51.3216509,4.9375577
2310,"Rijkevorsel",51.3480582,4.7605267
2320,"Hoogstraten",51.4032970,4.7468218
2321,"Meer",51.4456000,4.7383000
2322,"Minderhout",51.4165400,4.7633900
2323,"Wortel",51.3975100,4.7947500
2328,"Meerle",51.4733516,4.8037690
2330,"Merksplas",51.3581850,4.8635657
2340,"Beerse",51.3194900,4.8548200
2340,"Vlimmeren",51.2971394,4.7820454
2350,"Vosselaar",51.3030836,4.8834494
2360,"Oud-Turnhout",51.3177601,4.9828450
2370,"Arendonk",51.3220490,5.0863348
2380,"Ravels",51.3762015,5.0185568
2381,"Weelde",51.4067630,4.9908357
2382,"Poppel",51.4471741,5.0431801
2387,"Baarle-Hertog",51.4418320,4.9317360
2390,"Malle",51.2968136,4.6942633
2390,"Oostmalle",51.3011370,4.7337542
2390,"Westmalle",51.2968136,4.6942633
2400,"Mol",51.1910870,5.1170647
2430,"Eindhout",51.1033400,4.9997000
2430,"Laakdal",51.0873823,5.0242977
2430,"Vorst",51.0797300,5.0202400
2431,"Varendonk",51.0839700,4.9513000
2431,"Veerle",51.0699400,4.9872100
2440,"Geel",51.1625700,4.9908400
2450,"Meerhout",51.1321900,5.0770800
2460,"Kasterlee",51.2405204,4.9674449
2460,"Lichtaart",51.2197251,4.9108088
2460,"Tielen",51.2434976,4.8976789
2470,"Retie",51.2669664,5.0842508
2480,"Dessel",51.2398500,5.1126900
2490,"Balen",51.1578305,5.2100666
2491,"Olmen",51.1420912,5.1507200
2500,"Koningshooikt",51.0952200,4.6101100
2500,"Lier",51.1302138,4.5715092
2520,"Broechem",51.1813334,4.6020124
2520,"Emblem",51.1620413,4.6050680
2520,"Oelegem",51.2129972,4.5997149
2520,"Ranst",51.1890940,4.5609095
2530,"Boechout",51.1664397,4.4971700
2531,"Vremde",51.1748600,4.5231100
2540,"Hove",51.1539722,4.4711513
2547,"Lint",51.1272300,4.4966900
2550,"Kontich",51.1352235,4.4448202
2550,"Waarloos",51.1050610,4.4546959
2560,"Bevel",51.1377400,4.6803800
2560,"Kessel",51.1391500,4.6296800
2560,"Nijlen",51.1613531,4.6706015
2570,"Duffel",51.0953745,4.5052038
2580,"Beerzel",51.0578600,4.6676400
2580,"Putte",51.0547600,4.6286700
2590,"Berlaar",51.1180400,4.6575200
2590,"Gestel",51.1284000,4.6731600
2600,"Berchem",51.1898560,4.4329510
2610,"Wilrijk",51.1683102,4.3942868
2620,"Hemiksem",51.1451800,4.3383400
2627,"Schelle",51.1269186,4.3388412
2630,"Aartselaar",51.1340539,4.3844742
2640,"Mortsel",51.1728522,4.4665225
2650,"Edegem",51.1559541,4.4318937
2660,"Hoboken",51.1775732,4.3499200
2800,"Mechelen",51.0258791,4.4775365
2800,"Walem",51.0676813,4.4572147
2801,"Heffen",51.0468914,4.4137291
2811,"Hombeek",51.0143560,4.4427697
2811,"Leest",51.0328978,4.4176682
2812,"Muizen",51.0103798,4.5157593
2820,"Bonheiden",51.0222100,4.5480300
2820,"Rijmenam",51.0037609,4.5902677
2830,"Blaasveld",51.0558300,4.3771900
2830,"Heindonk",51.0673000,4.4075600
2830,"Tisselt",51.0343700,4.3571700
2830,"Willebroek",51.0597994,4.3640791
2840,"Reet",51.1011334,4.4125882
2840,"Rumst",51.0804212,4.4217895
2840,"Terhagen",51.0791977,4.3992612
2845,"Niel",51.1106400,4.3320700
2850,"Boom",51.0860800,4.3663300
2860,"Sint-Katelijne-Waver",51.0614235,4.5055555
2861,"Onze-Lieve-Vrouw-Waver",51.0618859,4.5787019
2870,"Breendonk",51.0430900,4.3220400
2870,"Liezele",51.0608200,4.2802300
2870,"Puurs",51.0750000,4.2892500
2870,"Ruisbroek",51.0879900,4.3310700
2880,"Bornem",51.0996057,4.2404586
2880,"Hingene",51.1032985,4.2687874
2880,"Mariekerke",51.0634883,4.1923418
2880,"Weert",51.1034075,4.1901230
2890,"Lippelo",51.0421500,4.2586000
2890,"Oppuurs",51.0660700,4.2419900
2890,"Sint-Amands",51.0559500,4.2094600
2900,"Schoten",51.2497532,4.4977063
2910,"Essen",51.4677600,4.4684400
2920,"Kalmthout",51.3829800,4.4751800
2930,"Brasschaat",51.2922700,4.4941900
2940,"Hoevenen",51.3061855,4.4047295
2940,"Stabroek",51.3347290,4.3716890
2950,"Kapellen",51.3140240,4.4323815
2960,"Brecht",51.3496533,4.6377227
2960,"Sint-Job-In-'t-Goor",51.2982700,4.5732000
2960,"Sint-Lenaarts",51.3486900,4.6770300
2970,"'s Gravenwezel",51.2629200,4.5609600
2970,"Schilde",51.2407352,4.5834231
2980,"Halle",51.2398459,4.6465058
2980,"Zoersel",51.2682227,4.7125694
2990,"Loenhout",51.3990063,4.6432288
2990,"Wuustwezel",51.3894040,4.5912302
3000,"Leuven",50.8815197,4.6967578
3001,"Heverlee",50.8638600,4.6959400
3010,"Kessel Lo",50.8851400,4.7357100
3012,"Wilsele",50.8904700,4.6945100
3018,"Wijgmaal",50.9262400,4.7019500
3020,"Herent",50.9092247,4.6768701
3020,"Veltem-Beisem",50.9063184,4.6208250
3020,"Winksele",50.8974666,4.6435179
3040,"Huldenberg",50.7885995,4.5880687
3040,"Loonbeek",50.8097200,4.6102900
3040,"Neerijse",50.8174300,4.6234500
3040,"Ottenburg",50.7519900,4.6157900
3040,"Sint-Agatha-Rode",50.7855900,4.6340800
3050,"Oud-Heverlee",50.8282606,4.6595340
3051,"Sint-Joris-Weert",50.8027501,4.6528755
3052,"Blanden",50.8255800,4.7091600
3053,"Haasrode",50.8315900,4.7298800
3054,"Vaalbeek",50.8255300,4.6893800
3060,"Bertem",50.8632924,4.6307637
3060,"Korbeek-Dijle",50.8380700,4.6382000
3061,"Leefdaal",50.8486600,4.5939000
3070,"Kortenberg",50.8855654,4.5374772
3071,"Erps-Kwerps",50.9006097,4.5607782
3078,"Everberg",50.8788296,4.5712345
3078,"Meerbeek",50.8818641,4.5892898
3080,"Duisburg",50.8156900,4.5518400
3080,"Tervuren",50.8259264,4.5077781
3080,"Vossem",50.8357700,4.5602600
3090,"Overijse",50.7681029,4.5336216
3110,"Rotselaar",50.9535967,4.7215113
3111,"Wezemaal",50.9482000,4.7554100
3118,"Werchter",50.9727800,4.7000700
3120,"Tremelo",50.9956159,4.7159551
3128,"Baal",50.9955500,4.7530400
3130,"Begijnendijk",51.0188000,4.7826300
3130,"Betekom",50.9856600,4.7817000
3140,"Keerbergen",51.0057936,4.6320416
3150,"Haacht",50.9789400,4.6413400
3150,"Tildonk",50.9432700,4.6444900
3150,"Wespelaar",50.9599100,4.6388400
3190,"Boortmeerbeek",50.9803397,4.5744373
3191,"Hever",50.9950000,4.5513500
3200,"Aarschot",50.9806151,4.8273810
3200,"Gelrode",50.9654800,4.8027200
3201,"Langdorp",50.9953100,4.8708300
3202,"Rillaar",50.9743800,4.8942200
3210,"Linden",50.8939300,4.7721500
3210,"Lubbeek",50.8813339,4.8292252
3211,"Binkom",50.8711900,4.8843900
3212,"Pellenberg",50.8715002,4.7938490
3220,"Holsbeek",50.9248584,4.7861502
3220,"Kortrijk-Dutsel",50.9266825,4.8055097
3220,"Sint-Pieters-Rode",50.9323900,4.8205700
3221,"Nieuwrode",50.9495500,4.8333900
3270,"Scherpenheuvel",50.9800833,4.9753544
3270,"Scherpenheuvel-Zichem",50.9742707,4.9785767
3271,"Averbode",51.0305467,4.9774540
3271,"Zichem",51.0006721,4.9830118
3272,"Messelbroek",50.9933331,4.9274801
3272,"Testelt",51.0169210,4.9549334
3290,"Deurne",51.0393600,5.0964800
3290,"Diest",51.0010401,5.0852169
3290,"Schaffen",50.9997500,5.0848400
3290,"Webbekom",50.9722766,5.0720072
3293,"Kaggevinne",50.9793700,5.0189600
3294,"Molenstede",51.0037800,5.0134700
3300,"Bost",50.7883900,4.9406300
3300,"Goetsenhoven",50.7678100,4.9511400
3300,"Hakendover",50.7970600,4.9852500
3300,"Kumtich",50.8224600,4.8874200
3300,"Oorbeek",50.7981100,4.8924000
3300,"Oplinter",50.8292300,4.9875700
3300,"Sint-Margriete-Houtem",50.8283600,4.9553900
3300,"Tienen",50.8105700,4.9362200
3300,"Vissenaken",50.8376800,4.9048400
3320,"Hoegaarden",50.7806488,4.8685676
3320,"Meldert",50.7880100,4.8377200
3321,"Outgaarden",50.7652100,4.9179300
3350,"Drieslinter",50.8460500,5.0504800
3350,"Linter",50.8415100,5.0366100
3350,"Melkwezer",50.8252947,5.0613545
3350,"Neerhespen",50.7918055,5.0548854
3350,"Neerlinter",50.8398055,5.0221970
3350,"Orsmaal-Gussenhoven",50.8033315,5.0620563
3350,"Overhespen",50.7954085,5.0360799
3350,"Wommersom",50.8134204,5.0179520
3360,"Bierbeek",50.8279000,4.7598100
3360,"Korbeek-Lo",50.8601903,4.7626896
3360,"Lovenjoel",50.8581300,4.7814800
3360,"Opvelp",50.8100900,4.7933300
3370,"Boutersem",50.8410900,4.8347100
3370,"Kerkom",50.8551900,4.8745100
3370,"Neervelp",50.8210000,4.8081100
3370,"Roosbeek",50.8356400,4.8623100
3370,"Vertrijk",50.8297600,4.8345500
3370,"Willebringen",50.8128100,4.8449100
3380,"Bunsbeek",50.8421650,4.9426464
3380,"Glabbeek",50.8602725,4.9583256
3381,"Kapellen",50.8852681,4.9501898
3384,"Attenrode",50.8771186,4.9242614
3390,"Houwaart",50.9328147,4.8580637
3390,"Sint-Joris-Winge",50.9077298,4.8768396
3390,"Tielt",50.9408920,4.9046956
3390,"Tielt-Winge",50.9206968,4.8866603
3391,"Meensel-Kiezegem",50.8964842,4.9257825
3400,"Eliksem",50.7848700,5.0096800
3400,"Ezemaal",50.7760900,5.0001600
3400,"Laar",50.7715800,5.0257200
3400,"Landen",50.7628602,5.0421020
3400,"Neerwinden",50.7661600,5.0443400
3400,"Overwinden",50.7531800,5.0489000
3400,"Rumsdorp",50.7661900,5.0762300
3400,"Wange",50.7859800,5.0317600
3401,"Waasmont",50.7272400,5.0623100
3401,"Walsbets",50.7372300,5.0852800
3401,"Walshoutem",50.7237300,5.0955300
3401,"Wezeren",50.7300800,5.1048500
3404,"Attenhoven",50.7665200,5.0930800
3404,"Neerlanden",50.7781200,5.0790100
3440,"Budingen",50.8654000,5.0981100
3440,"Dormaal",50.8072200,5.0985000
3440,"Halle-Booienhoven",50.8047500,5.1116800
3440,"Helen-Bos",50.8182300,5.0822000
3440,"Zoutleeuw",50.8323100,5.1044200
3450,"Geetbets",50.8902757,5.1095641
3450,"Grazen",50.8752077,5.1308353
3454,"Rummen",50.8889069,5.1656281
3460,"Assent",50.9526086,5.0159442
3460,"Bekkevoort",50.9426234,4.9856410
3461,"Molenbeek-Wersbeek",50.9184738,4.9415359
3470,"Kortenaken",50.8973765,5.0663974
3470,"Ransberg",50.8743562,5.0377616
3470,"Sint-Margriete-Houtem",50.8128004,3.2790522
3471,"Hoeleden",50.8681697,4.9869044
3472,"Kersbeek-Miskom",50.8858124,4.9958008
3473,"Waanrode",50.9161837,5.0046920
3500,"Hasselt",50.9215166,5.3447405
3500,"Sint-Lambrechts-Herk",50.8984100,5.3074100
3501,"Wimmertingen",50.8831759,5.3526453
3510,"Kermt",50.9476700,5.2467600
3510,"Spalbeek",50.9486672,5.2247223
3511,"Kuringen",50.9438700,5.2978900
3511,"Stokrooie",50.9661900,5.2813400
3512,"Stevoort",50.9183000,5.2531600
3520,"Zonhoven",50.9870700,5.3671600
3530,"Helchteren",51.0565512,5.3826921
3530,"Houthalen",51.0314627,5.3763541
3530,"Houthalen-Helchteren",51.0312424,5.3765453
3540,"Berbroek",50.9503306,5.2083451
3540,"Donk",50.9382225,5.1344391
3540,"Herk-De-Stad",50.9392300,5.1671200
3540,"Schulen",50.9599580,5.1904844
3545,"Halen",50.9485000,5.1111700
3545,"Loksbergen",50.9342585,5.0695638
3545,"Zelem",50.9781579,5.1057744
3550,"Heusden",51.0354099,5.2830570
3550,"Heusden-Zolder",51.0384819,5.2904127
3550,"Zolder",51.0229535,5.3097324
3560,"Linkhout",50.9681200,5.1368700
3560,"Lummen",50.9876100,5.1951100
3560,"Meldert",50.9986700,5.1418000
3570,"Alken",50.8760900,5.3076700
3580,"Beringen",51.0473373,5.2214769
3581,"Beverlo",51.0873000,5.2189800
3582,"Koersel",51.0584400,5.2717600
3583,"Paal",51.0395300,5.1716500
3590,"Diepenbeek",50.9108300,5.4133600
3600,"Genk",50.9661300,5.5021000
3620,"Gellik",50.8839114,5.6103183
3620,"Lanaken",50.8919602,5.6398572
3620,"Neerharen",50.9088851,5.6808314
3620,"Veldwezelt",50.8677788,5.6305961
3621,"Rekem",50.9224749,5.6957272
3630,"Eisden",50.9854566,5.7140769
3630,"Leut",50.9900244,5.7350908
3630,"Maasmechelen",50.9692780,5.6619185
3630,"Mechelen-Aan-De-Maas",50.9797588,5.7018567
3630,"Meeswijk",50.9995012,5.7496822
3630,"Opgrimbie",50.9432913,5.6809579
3630,"Vucht",50.9787264,5.7106715
3631,"Boorsem",50.9408237,5.7197843
3631,"Uikhoven",50.9236770,5.7183356
3640,"Kessenich",51.1514200,5.8229700
3640,"Kinrooi",51.1455200,5.7411300
3640,"Molenbeersel",51.1700200,5.7375800
3640,"Ophoven",51.1255900,5.8020400
3650,"Dilsen",51.0374700,5.7221500
3650,"Dilsen-Stokkem",51.0301998,5.7000888
3650,"Elen",51.0665500,5.7508300
3650,"Lanklaar",51.0188000,5.7262000
3650,"Rotem",51.0529700,5.7411800
3650,"Stokkem",51.0236400,5.7441800
3660,"Opglabbeek",51.0431600,5.5841200
3665,"As",50.9997751,5.5715438
3668,"Niel-Bij-As",51.0176272,5.6045057
3670,"Ellikom",51.1271900,5.5236600
3670,"Gruitrode",51.0899900,5.5896900
3670,"Meeuwen",51.0986700,5.5205000
3670,"Meeuwen-Gruitrode",51.0949500,5.5478400
3670,"Neerglabbeek",51.0914400,5.6167600
3670,"Wijshagen",51.1046100,5.5588100
3680,"Maaseik",51.0983909,5.7837625
3680,"Neeroeteren",51.0918046,5.6995386
3680,"Opoeteren",51.0675622,5.6594443
3690,"Zutendaal",50.9319600,5.5722700
3700,"'s Herenelderen",50.8089063,5.5032825
3700,"Berg",50.7918300,5.4949400
3700,"Diets-Heur",50.7453303,5.4828472
3700,"Haren",50.7979251,5.4020478
3700,"Henis",50.7992000,5.4712200
3700,"Kolmont",50.8041000,5.4237300
3700,"Koninksem",50.7653100,5.4399700
3700,"Lauw",50.7392355,5.4148753
3700,"Mal",50.7684738,5.5214638
3700,"Neerrepen",50.8110492,5.4442140
3700,"Nerem",50.7649963,5.5104893
3700,"Overrepen",50.8070423,5.4315896
3700,"Piringen",50.7864119,5.4178871
3700,"Riksingen",50.8051007,5.4632976
3700,"Rutten",50.7478825,5.4423901
3700,"Sluizen",50.7653436,5.5314429
3700,"Tongeren",50.7841900,5.4744900
3700,"Vreren",50.7515842,5.4974649
3700,"Widooie",50.7713726,5.4084338
3717,"Herstappe",50.7265300,5.4260000
3720,"Kortessem",50.8625531,5.3781216
3721,"Vliermaalroot",50.8637784,5.4240097
3722,"Wintershoven",50.8526300,5.4196800
3723,"Guigoven",50.8390899,5.3991570
3724,"Vliermaal",50.8394948,5.4289047
3730,"Hoeselt",50.8497352,5.4911243
3730,"Romershoven",50.8559840,5.4598837
3730,"Sint-Huibrechts-Hern",50.8298500,5.4492483
3730,"Werm",50.8328482,5.4802846
3732,"Schalkhoven",50.8414306,5.4495653
3740,"Beverst",50.8902246,5.4751710
3740,"Bilzen",50.8719054,5.5166463
3740,"Eigenbilzen",50.8746121,5.5746355
3740,"Grote-Spouwen",50.8315692,5.5519685
3740,"Hees",50.8466302,5.6093720
3740,"Kleine-Spouwen",50.8381087,5.5483654
3740,"Mopertingen",50.8606327,5.5756295
3740,"Munsterbilzen",50.8897326,5.5261669
3740,"Rijkhoven",50.8329777,5.5150984
3740,"Rosmeer",50.8456546,5.5806307
3740,"Waltwilder",50.8658211,5.5441802
3742,"Martenslinde",50.8565985,5.5332305
3746,"Hoelbeek",50.8718626,5.5564999
3770,"Genoelselderen",50.8029700,5.5388450
3770,"Herderen",50.8065724,5.5723296
3770,"Kanne",50.8140550,5.6693136
3770,"Membruggen",50.8141975,5.5343399
3770,"Millen",50.7856375,5.5561104
3770,"Riemst",50.8089945,5.6012328
3770,"Val-Meer",50.7862227,5.5962800
3770,"Vlijtingen",50.8320854,5.5842906
3770,"Vroenhoven",50.8263221,5.6400304
3770,"Zichen-Zussen-Bolder",50.7933496,5.6245555
3790,"Moelingen",50.7570096,5.7134973
3790,"Sint-Martens-Voeren",50.7485199,5.8122336
3790,"Voeren",50.7464187,5.8409039
3791,"Remersdaal",50.7315308,5.8808478
3792,"Sint-Pieters-Voeren",50.7383570,5.8226791
3793,"Teuven",50.7518324,5.8759546
3798,"S Gravenvoeren",50.7587829,5.7611628
3800,"Aalst",50.7816600,5.2089800
3800,"Brustem",50.8056500,5.2218700
3800,"Engelmanshoven",50.7713400,5.2509200
3800,"Gelinden",50.7655200,5.2609200
3800,"Groot-Gelmen",50.7852500,5.2629600
3800,"Halmaal",50.8058900,5.1557400
3800,"Kerkom-Bij-Sint-Truiden",50.7742900,5.1778700
3800,"Ordingen",50.8128500,5.2352100
3800,"Sint-Truiden",50.8019192,5.2202655
3800,"Zepperen",50.8211600,5.2476700
3803,"Duras",50.8355200,5.1463800
3803,"Gorsem",50.8348300,5.1619500
3803,"Runkelen",50.8468100,5.1508800
3803,"Wilderen",50.8158700,5.1413600
3806,"Velm",50.7793100,5.1316200
3830,"Berlingen",50.8197100,5.3112100
3830,"Wellen",50.8436052,5.3362409
3831,"Herten",50.8320635,5.3321062
3832,"Ulbeek",50.8438100,5.3046500
3840,"Bommershoven",50.7880000,5.3790400
3840,"Borgloon",50.8061300,5.3430200
3840,"Broekom",50.7823800,5.3317600
3840,"Gors-Opleeuw",50.8233766,5.3967118
3840,"Gotem",50.8051500,5.3135100
3840,"Groot-Loon",50.7924700,5.3633800
3840,"Haren",50.7927400,5.3995300
3840,"Hendrieken",50.7988900,5.3281100
3840,"Hoepertingen",50.8123500,5.2836800
3840,"Jesseren",50.8059400,5.3898900
3840,"Kerniel",50.8163200,5.3636800
3840,"Kolmont",50.8031485,5.4230892
3840,"Kuttekoven",50.8090000,5.3260300
3840,"Rijkel",50.8098900,5.2608300
3840,"Voort",50.7947800,5.3197100
3850,"Binderveld",50.8608000,5.1648100
3850,"Kozen",50.8749600,5.2398500
3850,"Nieuwerkerken",50.8647500,5.1886900
3850,"Wijer",50.8983800,5.2239100
3870,"Batsheers",50.7385500,5.2813400
3870,"Bovelingen",50.7375212,5.2600349
3870,"Gutshoven",50.7738900,5.3171300
3870,"Heers",50.7536800,5.3020900
3870,"Heks",50.7701000,5.3575100
3870,"Horpmaal",50.7604900,5.3356700
3870,"Klein-Gelmen",50.7697800,5.2769400
3870,"Mechelen-Bovelingen",50.7405400,5.2604900
3870,"Mettekoven",50.7810300,5.2906200
3870,"Opheers",50.7397200,5.2976600
3870,"Rukkelingen-Loon",50.7278400,5.2544400
3870,"Vechmaal",50.7614100,5.3746600
3870,"Veulen",50.7637100,5.3057800
3890,"Boekhout",50.7456800,5.2335300
3890,"Gingelom",50.7498800,5.1332000
3890,"Jeuk",50.7342700,5.2096900
3890,"Kortijs",50.7074500,5.1494400
3890,"Montenaken",50.7210100,5.1272100
3890,"Niel-Bij-Sint-Truiden",50.7421700,5.1420500
3890,"Vorsen",50.7039100,5.1685800
3891,"Borlo",50.7421600,5.1813500
3891,"Buvingen",50.7529400,5.1776700
3891,"Mielen-Boven-Aalst",50.7554353,5.2150212
3891,"Muizen",50.7602400,5.1794400
3900,"Overpelt",51.2102694,5.4225379
3910,"Neerpelt",51.2272400,5.4317300
3910,"Sint-Huibrechts-Lille",51.2225100,5.4957600
3920,"Lommel",51.2304193,5.3110063
3930,"Achel",51.2522400,5.4795300
3930,"Hamont",51.2527200,5.5495300
3930,"Hamont-Achel",51.2697668,5.5154222
3940,"Hechtel",51.1252349,5.3661124
3940,"Hechtel-Eksel",51.1105222,5.3295958
3941,"Eksel",51.1546138,5.3943545
3945,"Ham",51.1038173,5.1777363
3945,"Kwaadmechelen",51.1007200,5.1441600
3945,"Oostham",51.1037300,5.1802200
3950,"Bocholt",51.1729100,5.5789900
3950,"Kaulille",51.1871700,5.5256800
3950,"Reppel",51.1550600,5.5630900
3960,"Beek",51.1558000,5.6035900
3960,"Bree",51.1409900,5.5980200
3960,"Gerdingen",51.1480400,5.5802000
3960,"Opitter",51.1165700,5.6497200
3960,"Tongerlo",51.1285600,5.6614500
3970,"Leopoldsburg",51.1183684,5.2506950
3971,"Heppen",51.1088735,5.2285739
3980,"Tessenderlo",51.0642666,5.0881938
3990,"Grote-Brogel",51.1543500,5.5083800
3990,"Kleine-Brogel",51.1725800,5.4501900
3990,"Peer",51.1329000,5.4536000
3990,"Wijchmaal",51.1355600,5.4131100
4000,"Glain",50.6478600,5.5435700
4000,"LiÈge",50.6350757,5.5628874
4000,"Rocourt",50.6758900,5.5458300
4020,"Bressoux",50.6399400,5.6059000
4020,"Jupille-Sur-Meuse",50.6454700,5.6348800
4020,"LiÈge",50.6423532,5.6279411
4020,"Wandre",50.6671500,5.6588300
4030,"Grivegnee",50.6216000,5.6107400
4031,"Angleur",50.6113500,5.5994300
4032,"Chênee",50.6122000,5.6137000
4040,"Herstal",50.6787306,5.6288850
4041,"Milmort",50.6903579,5.5922106
4041,"Vottem",50.6710455,5.5784697
4042,"Liers",50.6936460,5.5638281
4050,"Chaudfontaine",50.5896391,5.6427754
4051,"Vaux-Sous-Chèvremont",50.6010507,5.6318794
4052,"Beaufays",50.5586829,5.6387873
4053,"Embourg",50.5903039,5.6069213
4075,"Csm Liege X",50.5857729,5.6411104
4100,"Boncelles",50.5709023,5.5364671
4100,"Seraing",50.5838596,5.4996297
4101,"Jemeppe-Sur-Meuse",50.6175969,5.4951966
4102,"Ougrée",50.6012358,5.5443411
4120,"Ehein",50.5452937,5.4444311
4120,"NeuprÉ",50.5326636,5.4761468
4120,"Rotheux-Rimière",50.5346824,5.4810832
4121,"Neuville-En-Condroz",50.5524877,5.4511519
4122,"Plainevaux",50.5453134,5.5242890
4130,"Esneux",50.5350365,5.5684225
4130,"Tilff",50.5640699,5.5759823
4140,"Dolembreux",50.5360657,5.6328890
4140,"Gomzé-Andoumont",50.5474223,5.6896830
4140,"Rouvreux",50.4896684,5.6501920
4140,"Sprimont",50.5115650,5.6460921
4141,"Louveigné",50.5302309,5.7162168
4160,"Anthisnes",50.4820511,5.5194716
4161,"Villers-Aux-Tours",50.4978813,5.5162168
4162,"Hody",50.4864593,5.5038981
4163,"Tavier",50.4963213,5.4705965
4170,"Comblain-Au-Pont",50.4740721,5.5626210
4171,"Poulseur",50.5087030,5.5785541
4180,"Comblain-Fairon",50.4467427,5.5473277
4180,"Comblain-La-Tour",50.4542848,5.5717044
4180,"Hamoir",50.4384106,5.5492373
4181,"Filot",50.4265400,5.5668000
4190,"FerriÈres",50.4002900,5.6056400
4190,"My",50.4054300,5.5734100
4190,"Vieuxville",50.3937900,5.5495500
4190,"Werbomont",50.3803700,5.6839600
4190,"Xhoris",50.4454900,5.6043600
4210,"Burdinne",50.5841100,5.0764300
4210,"Hannêche",50.5779300,5.0478800
4210,"Lamontzée",50.5844100,5.0925400
4210,"Marneffe",50.5803800,5.1467400
4210,"Oteppe",50.5805489,5.1265557
4217,"HÉron",50.5526795,5.0922925
4217,"Lavoir",50.5502640,5.1196405
4217,"Waret-L'evêque",50.5484795,5.0612138
4218,"Couthuin",50.5314526,5.1224958
4219,"Acosse",50.5927700,5.0465700
4219,"Ambresin",50.6304500,5.0305700
4219,"Meeffe",50.6075000,5.0182100
4219,"Wasseiges",50.6175400,5.0016200
4250,"Boëlhe",50.6821400,5.1664600
4250,"Geer",50.6701762,5.1828092
4250,"Hollogne-Sur-Geer",50.6766000,5.2054100
4250,"Lens-Saint-Servais",50.6635700,5.1558500
4252,"Omal",50.6558400,5.1993700
4253,"Darion",50.6645800,5.1865400
4254,"Ligney",50.6614800,5.1822700
4257,"Berloz",50.6987500,5.2126500
4257,"Corswarem",50.7107800,5.2132400
4257,"Rosoux-Crenwick",50.7074100,5.1894900
4260,"Avennes",50.6294922,5.1127625
4260,"Braives",50.6282300,5.1488100
4260,"Ciplet",50.6183437,5.0926809
4260,"Fallais",50.6102200,5.1703900
4260,"Fumal",50.5866100,5.1831300
4260,"Ville-En-Hesbaye",50.6157563,5.1159028
4261,"Latinne",50.6247500,5.1640100
4263,"Tourinne",50.6390200,5.1745700
4280,"Abolens",50.6730200,5.1488600
4280,"Avernas-Le-Bauduin",50.6942800,5.0786100
4280,"Avin",50.6221500,5.0693200
4280,"Bertrée",50.6952100,5.0913300
4280,"Blehen",50.6643018,5.1225686
4280,"Cras-Avernas",50.6973300,5.1236300
4280,"Crehen",50.6599300,5.0634000
4280,"Grand-Hallet",50.6955500,5.0322200
4280,"Hannut",50.6721500,5.0777600
4280,"Lens-Saint-Remy",50.6543514,5.1331258
4280,"Merdorp",50.6483200,5.0004400
4280,"Moxhe",50.6305700,5.0834600
4280,"Petit-Hallet",50.6875800,5.0172100
4280,"Poucet",50.6758800,5.1165300
4280,"Thisnes",50.6658000,5.0467700
4280,"Trognée",50.6872500,5.1247700
4280,"Villers-Le-Peuplier",50.6562000,5.0958400
4280,"Wansin",50.6789800,5.0190400
4287,"Lincent",50.7128616,5.0305803
4287,"Pellaines",50.7257187,5.0070620
4287,"Racour",50.7396057,5.0289273
4300,"Bettincourt",50.7125100,5.2358400
4300,"Bleret",50.6892900,5.2873400
4300,"Bovenistier",50.6678000,5.2838900
4300,"Grand-Axhe",50.6805500,5.2295800
4300,"Lantremange",50.7117100,5.2956100
4300,"Oleye",50.7138200,5.2811300
4300,"Waremme",50.6975700,5.2555300
4317,"Aineffe",50.6255700,5.2574900
4317,"Borlez",50.6332500,5.2433100
4317,"Celles",50.6541500,5.2461400
4317,"Faimes",50.6618300,5.2600900
4317,"Les Waleffes",50.6377900,5.2232900
4317,"Viemme",50.6467900,5.2722400
4340,"Awans",50.6668610,5.4628633
4340,"Fooz",50.6759853,5.4359267
4340,"Othée",50.7157403,5.4671194
4340,"Villers-L'evêque",50.7044467,5.4395108
4342,"Hognoul",50.6814461,5.4543405
4347,"Fexhe-Le-Haut-Clocher",50.6653330,5.3994597
4347,"Freloux",50.6804933,5.4065984
4347,"Noville",50.6599134,5.3822669
4347,"Roloux",50.6510925,5.3974408
4347,"Voroux-Goreux",50.6548149,5.4291442
4350,"Lamine",50.6890700,5.3347200
4350,"Momalle",50.6856900,5.3758100
4350,"Pousset",50.6947600,5.3042000
4350,"Remicourt",50.6802000,5.3284400
4351,"Hodeige",50.6960700,5.3416700
4357,"Donceel",50.6457700,5.3213800
4357,"Haneffe",50.6379100,5.3204600
4357,"Jeneffe",50.6511100,5.3543400
4357,"Limont",50.6605976,5.3114031
4360,"Bergilers",50.7154300,5.3289700
4360,"Grandville",50.7234100,5.3388100
4360,"Lens-Sur-Geer",50.7211400,5.3509900
4360,"Oreye",50.7317500,5.3577000
4360,"Otrange",50.7360100,5.3785500
4367,"CrisnÉe",50.7173633,5.3977032
4367,"Fize-Le-Marsal",50.7023863,5.3855696
4367,"Kemexhe",50.6973611,5.4075417
4367,"Odeur",50.7064872,5.4164174
4367,"Thys",50.7225445,5.3904320
4400,"Awirs",50.5999117,5.4061097
4400,"Chokier",50.5911345,5.4419320
4400,"FlÉmalle",50.6018700,5.4433500
4400,"Flémalle-Grande",50.6087724,5.4765157
4400,"Flémalle-Haute",50.6001541,5.4459559
4400,"Gleixhe",50.6130146,5.3893727
4400,"Ivoz-Ramet",50.5883864,5.4638963
4400,"Mons-Lez-Liège",50.6233740,5.4558943
4420,"Montegnée",50.6453400,5.5141400
4420,"Saint-Nicolas",50.6292407,5.5321898
4420,"Tilleur",50.6194824,5.5201566
4430,"Ans",50.6602130,5.5265524
4431,"Loncin",50.6662400,5.5052100
4432,"Alleur",50.6743400,5.5133800
4432,"Xhendremael",50.7050200,5.4831000
4450,"Juprelle",50.7096477,5.5267686
4450,"Lantin",50.6885256,5.5246269
4450,"Slins",50.7277297,5.5637966
4451,"Voroux-Lez-Liers",50.6875929,5.5549161
4452,"Paifve",50.7283378,5.5249034
4452,"Wihogne",50.7271304,5.5066908
4453,"Villers-Saint-Siméon",50.7111071,5.5388369
4458,"Fexhe-Slins",50.7200300,5.5695400
4460,"Bierset",50.6550000,5.4509200
4460,"Grâce-Berleur",50.6400100,5.5019000
4460,"GrÂce-Hollogne",50.6341200,5.4756600
4460,"Hollogne-Aux-Pierres",50.6403400,5.4708400
4460,"Horion-Hozémont",50.6283400,5.3796100
4460,"Velroux",50.6429000,5.4243700
4470,"Saint-Georges-Sur-Meuse",50.6000700,5.3575600
4480,"Clermont-Sous-Huy",50.5693910,5.3918142
4480,"Ehein",50.2997581,6.1266116
4480,"Engis",50.5832252,5.4037136
4480,"Hermalle-Sous-Huy",50.5591378,5.3619152
4500,"Ben-Ahin",50.5019819,5.1852407
4500,"Huy",50.5186775,5.2396514
4500,"Tihange",50.5296991,5.2614551
4520,"Antheit",50.5489545,5.2403601
4520,"Bas-Oha",50.5262731,5.1908989
4520,"Huccorgne",50.5672767,5.1655285
4520,"Moha",50.5476918,5.1862090
4520,"Vinalmont",50.5631337,5.2306622
4520,"Wanze",50.5344760,5.2141011
4530,"Fize-Fontaine",50.5851000,5.2830100
4530,"Vaux-Et-Borset",50.6133200,5.2320700
4530,"Vieux-Waleffe",50.6160879,5.2037631
4530,"Villers-Le-Bouillet",50.5699683,5.2662704
4530,"Warnant-Dreye",50.5952300,5.2275300
4537,"Bodegnée",50.5859300,5.3037100
4537,"Chapon-Seraing",50.6084100,5.2690400
4537,"Seraing-Le-Château",50.6213200,5.2982900
4537,"Verlaine",50.6063300,5.3172900
4540,"Amay",50.5482792,5.3096648
4540,"Ampsin",50.5413781,5.2780528
4540,"Flône",50.5575651,5.3360181
4540,"Jehay",50.5724773,5.3247092
4540,"Ombret",50.5421828,5.3332337
4550,"Nandrin",50.5071610,5.4198582
4550,"Saint-Séverin",50.5298269,5.4112136
4550,"Villers-Le-Temple",50.5173291,5.3595062
4550,"Yernée-Fraineux",50.5290790,5.3839140
4557,"Abée",50.4730891,5.3564959
4557,"Fraiture",50.4784330,5.4194689
4557,"Ramelot",50.4669858,5.3331598
4557,"Seny",50.4589883,5.4015811
4557,"Soheit-Tinlot",50.4834221,5.3885701
4557,"Tinlot",50.4777355,5.3788180
4560,"Bois-Et-Borsu",50.3892980,5.3227509
4560,"Clavier",50.4114801,5.3635498
4560,"Les Avins",50.4161066,5.3016015
4560,"Ocquier",50.3956189,5.3937321
4560,"Pailhe",50.4228394,5.2582114
4560,"Terwagne",50.4443430,5.3482649
4570,"Marchin",50.4651700,5.2420400
4570,"Vyle-Et-Tharoul",50.4445000,5.2615200
4577,"Modave",50.4423750,5.3007316
4577,"Outrelouxhe",50.5032627,5.3346305
4577,"Strée-Lez-Huy",50.4931942,5.3218809
4577,"Vierset-Barse",50.4834371,5.2976608
4590,"Ellemelle",50.4675200,5.4443400
4590,"Ouffet",50.4381000,5.4653800
4590,"Warzée",50.4492900,5.4282800
4600,"Lanaye",50.7816616,5.6945353
4600,"Lixhe",50.7567965,5.6793302
4600,"Richelle",50.7136425,5.6952993
4600,"VisÉ",50.7436241,5.6866789
4601,"Argenteau",50.6961555,5.6876046
4602,"Cheratte",50.6837494,5.6707829
4606,"Saint-André",50.6956754,5.7530732
4607,"Berneau",50.7427406,5.7306194
4607,"Bombaye",50.7307281,5.7448822
4607,"Dalhem",50.7205105,5.7331059
4607,"Feneur",50.7042957,5.7149169
4607,"Mortroux",50.7114781,5.7536961
4608,"Neufchâteau",50.7193680,5.7757062
4608,"Warsage",50.7355105,5.7691321
4610,"Bellaire",50.6449882,5.6654339
4610,"Beyne-Heusay",50.6216012,5.6558548
4610,"Queue-Du-Bois",50.6373747,5.6789257
4620,"FlÉron",50.6179541,5.6845374
4621,"Retinne",50.6301336,5.6971829
4623,"Magnée",50.5996569,5.6884335
4624,"Romsée",50.6106080,5.6645040
4630,"Ayeneux",50.6077652,5.7168110
4630,"Micheroux",50.6265063,5.7211700
4630,"Soumagne",50.6162143,5.7372708
4630,"Tignée",50.6512700,5.7020100
4631,"Evegnée",50.6421700,5.7087500
4632,"Cérexhe-Heuseux",50.6541483,5.7264702
4633,"Melen",50.6460486,5.7359996
4650,"Chaineux",50.6316775,5.8344045
4650,"Grand-Rechain",50.6074436,5.8099828
4650,"Herve",50.6317827,5.8425762
4650,"Julémont",50.6860172,5.7713927
4651,"Battice",50.6474662,5.8207169
4652,"Xhendelesse",50.6050929,5.7782579
4653,"Bolland",50.6610700,5.7603700
4654,"Charneux",50.6698339,5.8041681
4670,"BlÉgny",50.6792685,5.7246643
4670,"Mortier",50.6850484,5.7434908
4670,"Trembleur",50.6953980,5.7264581
4671,"Barchon",50.6686600,5.6999200
4671,"Housse",50.6789837,5.6910818
4671,"Saive",50.6530557,5.6858939
4672,"Saint-Remy",50.6954433,5.7044415
4680,"Hermée",50.7079438,5.6184661
4680,"Oupeye",50.7127029,5.6261513
4681,"Hermalle-Sous-Argenteau",50.7112191,5.6800351
4682,"Heure-Le-Romain",50.7313994,5.6332813
4682,"Houtain-Saint-Siméon",50.7398627,5.6118142
4683,"Vivegnis",50.6948109,5.6467328
4684,"Haccourt",50.7303379,5.6688849
4690,"Bassenge",50.7591324,5.6100672
4690,"Boirs",50.7509508,5.5800373
4690,"Eben-Emael",50.7933169,5.6656377
4690,"Glons",50.7520728,5.5450180
4690,"Roclenge-Sur-Geer",50.7569143,5.5953980
4690,"Wonck",50.7669118,5.6358592
4700,"Eupen",50.6133173,6.1011205
4701,"Kettenis",50.6472977,6.0468960
4710,"Lontzen",50.6816693,5.9875637
4711,"Walhorn",50.6746900,6.0454900
4720,"La Calamine",50.7193507,6.0118307
4721,"Neu-Moresnet",50.7160816,6.0213233
4728,"Hergenrath",50.7089534,6.0314237
4730,"Hauset",50.7104323,6.0696188
4730,"Raeren",50.6770198,6.1097331
4731,"Eynatten",50.6921704,6.0834561
4750,"Butgenbach",50.4266339,6.2042885
4750,"Elsenborn",50.4806086,6.2513662
4760,"Bullange",50.3739957,6.3042715
4760,"Manderfeld",50.3302124,6.3412395
4761,"Rocherath",50.4365286,6.3005753
4770,"AmblÈve",50.3542165,6.1694635
4770,"Meyerode",50.3179876,6.1897305
4771,"Heppenbach",50.3627954,6.2185552
4780,"Recht",50.3340631,6.0430930
4780,"Saint-Vith",50.2797224,6.1304560
4782,"Schoenberg",50.2887806,6.2652657
4783,"Lommersweiler",50.2388377,6.1655027
4784,"Crombach",50.2594213,6.0689550
4790,"Burg-Reuland",50.1966077,6.1376625
4790,"Reuland",50.1966077,6.1376625
4791,"Thommen",50.2182100,6.0739100
4800,"Ensival",50.5812596,5.8460072
4800,"Lambermont",50.5904288,5.8323452
4800,"Petit-Rechain",50.6144000,5.8344700
4800,"Polleur",50.5347397,5.8802762
4800,"Verviers",50.5910337,5.8655774
4801,"Stembert",50.5923294,5.8928874
4802,"Heusy",50.5745445,5.8662821
4820,"Dison",50.6125223,5.8534370
4821,"Andrimont",50.6139966,5.8844864
4830,"Limbourg",50.6036651,5.9357239
4831,"Bilstain",50.6243826,5.9198628
4834,"Goé",50.6061874,5.9567645
4837,"Baelen",50.6301763,5.9692046
4837,"Membach",50.6190500,5.9950100
4840,"Welkenraedt",50.6568973,5.9630388
4841,"Henri-Chapelle",50.6691380,5.9271962
4845,"Jalhay",50.5588226,5.9662952
4845,"Sart-Lez-Spa",50.5168580,5.9319544
4850,"Montzen",50.7075790,5.9619403
4850,"Moresnet",50.7211350,5.9889959
4850,"PlombiÈres",50.7193635,5.9635214
4851,"Gemmenich",50.7453476,5.9943856
4851,"Sippenaeken",50.7507270,5.9337213
4852,"Hombourg",50.7233365,5.9211923
4860,"Cornesse",50.5723031,5.7955711
4860,"Pepinster",50.5682638,5.8033087
4860,"Wegnez",50.5792278,5.8166757
4861,"Soiron",50.5918060,5.7904364
4870,"Forêt",50.5835849,5.6998538
4870,"Fraipont",50.5656406,5.7238334
4870,"Nessonvaux",50.5729394,5.7370077
4870,"Trooz",50.5786521,5.6730779
4877,"Olne",50.5900615,5.7465679
4880,"Aubel",50.7021296,5.8592295
4890,"Clermont",50.6590232,5.8845514
4890,"Thimister",50.6541950,5.8640069
4890,"Thimister-Clermont",50.6542116,5.8640147
4900,"Spa",50.4924300,5.8643200
4910,"La Reid",50.4893888,5.7905890
4910,"Polleur",50.5390463,5.8807055
4910,"Theux",50.5350997,5.8141884
4920,"Aywaille",50.4731800,5.6758400
4920,"Ernonheid",50.4033800,5.6663000
4920,"Harzé",50.4409600,5.6665100
4920,"Louveigné",50.4839900,5.7174700
4920,"Sougné-Remouchamps",50.4798700,5.7118500
4950,"Faymonville",50.4027387,6.1408548
4950,"Robertville",50.4545013,6.1221420
4950,"Sourbrodt",50.4789500,6.1117500
4950,"Waimes",50.4148914,6.1115604
4960,"Bellevaux-Ligneuville",50.3906700,6.0057700
4960,"Bevercé",50.4409143,6.0357210
4960,"Malmedy",50.4246396,6.0283276
4970,"Francorchamps",50.4543456,5.9522139
4970,"Stavelot",50.3941099,5.9304135
4980,"Fosse",50.3411966,5.8412377
4980,"Trois-Ponts",50.3528769,5.9177072
4980,"Wanne",50.3550332,5.9216510
4983,"Basse-Bodeux",50.3565744,5.8305234
4987,"Chevron",50.3802778,5.7325146
4987,"La Gleize",50.4112600,5.8491514
4987,"Lorcé",50.4162542,5.7350483
4987,"Rahier",50.3848697,5.7807855
4987,"Stoumont",50.4068434,5.8086125
4990,"Arbrefontaine",50.3027600,5.8354100
4990,"Bra",50.3233900,5.7323000
4990,"Lierneux",50.2848031,5.7950312
5000,"Beez",50.4686653,4.9118340
5000,"Namur",50.4592670,4.8504571
5001,"Belgrade",50.4707019,4.8256487
5002,"Saint-Servais",50.4766054,4.8344548
5003,"Saint-Marc",50.4915149,4.8473250
5004,"Bouge",50.4719872,4.8915392
5012,"Parlement Wallon",50.4608774,4.8678855
5020,"Champion",50.4958176,4.9015766
5020,"Daussoulx",50.5181967,4.8886216
5020,"Flawinne",50.4573800,4.8109600
5020,"Malonne",50.4389600,4.7956600
5020,"Suarlée",50.4819500,4.7788500
5020,"Temploux",50.4852600,4.7543400
5020,"Vedrin",50.5022173,4.8760877
5021,"Boninne",50.4953566,4.9324641
5022,"Cognelée",50.5148464,4.9070712
5024,"Gelbressée",50.5055017,4.9561010
5024,"Marche-Les-Dames",50.4863306,4.9602568
5030,"Beuzet",50.5339100,4.7458400
5030,"Ernage",50.5923601,4.6719178
5030,"Gembloux",50.5742906,4.7016542
5030,"Grand-Manil",50.5570700,4.6754800
5030,"Lonzée",50.5529900,4.7263700
5030,"Sauvenière",50.5806500,4.7234800
5031,"Grand-Leez",50.5837400,4.7746900
5032,"Bossière",50.5180000,4.6957900
5032,"Bothey",50.5204300,4.6489400
5032,"Corroy-Le-Château",50.5387700,4.6627900
5032,"Isnes",50.5059800,4.7282700
5032,"Mazy",50.5104800,4.6726300
5060,"Arsimont",50.4285300,4.6388000
5060,"Auvelais",50.4493800,4.6302400
5060,"Falisolle",50.4177600,4.6208700
5060,"Keumiée",50.4526305,4.5960362
5060,"Moignelée",50.4454200,4.5845500
5060,"Sambreville",50.4467340,4.6307350
5060,"Tamines",50.4335300,4.6081900
5060,"Velaine-Sur-Sambre",50.4674000,4.6140200
5070,"Aisemont",50.4050400,4.6520900
5070,"Fosses-La-Ville",50.3945500,4.6961700
5070,"Le Roux",50.3890000,4.6239800
5070,"Sart-Eustache",50.3754000,4.6025900
5070,"Sart-Saint-Laurent",50.4022400,4.7416900
5070,"Vitrival",50.3985900,4.6595600
5080,"Emines",50.5121200,4.8446900
5080,"La BruyÈre",50.5073930,4.8150906
5080,"Rhisnes",50.5062600,4.8056800
5080,"Villers-Lez-Heest",50.5299800,4.8455800
5080,"Warisoulx",50.5366000,4.8665900
5081,"Bovesse",50.5191700,4.7806100
5081,"Meux",50.5519600,4.8010300
5081,"Saint-Denis-Bovesse",50.5353200,4.7818500
5100,"Dave",50.4143728,4.8877835
5100,"Jambes",50.4563673,4.8718770
5100,"Naninne",50.4185928,4.9239001
5100,"Wépion",50.4212060,4.8633172
5100,"Wierde",50.4260307,4.9509671
5101,"Erpent",50.4516025,4.9050011
5101,"Lives-Sur-Meuse",50.4654959,4.9241044
5101,"Loyers",50.4628570,4.9517789
5140,"Boignée",50.5002400,4.6093800
5140,"Ligny",50.5122800,4.5770200
5140,"Sombreffe",50.5287100,4.5884000
5140,"Tongrinne",50.5155000,4.6253000
5150,"Floreffe",50.4340500,4.7592200
5150,"Floriffoux",50.4519800,4.7716100
5150,"Franière",50.4359200,4.7328000
5150,"Soye",50.4493600,4.7304100
5170,"Arbre",50.3661200,4.8212600
5170,"Bois-De-Villers",50.3901900,4.8240800
5170,"Lesve",50.3768600,4.7779100
5170,"Lustin",50.3782500,4.8987600
5170,"Profondeville",50.3756621,4.8674002
5170,"Rivière",50.3565500,4.8745300
5190,"Balâtre",50.5003106,4.6395677
5190,"Ham-Sur-Sambre",50.4426813,4.6735065
5190,"Jemeppe-Sur-Sambre",50.4630907,4.6786862
5190,"Mornimont",50.4563509,4.7043225
5190,"Moustier-Sur-Sambre",50.4568755,4.6944478
5190,"Onoz",50.4920447,4.6697337
5190,"Saint-Martin",50.5018823,4.6473489
5190,"Spy",50.4796529,4.7042186
5300,"Andenne",50.4911522,5.0964543
5300,"Bonneville",50.4719693,5.0369958
5300,"Coutisse",50.4629612,5.1166532
5300,"Landenne",50.5149815,5.0669512
5300,"Maizeret",50.4596144,4.9790011
5300,"Namêche",50.4719758,4.9945844
5300,"Sclayn",50.4896345,5.0277233
5300,"Seilles",50.5002414,5.0931162
5300,"Thon",50.4633535,5.0145871
5300,"Vezin",50.4958205,5.0087682
5310,"Aische-En-Refail",50.5994800,4.8381900
5310,"Bolinne",50.6008300,4.9294000
5310,"Boneffe",50.6250800,4.9550800
5310,"Branchon",50.6291020,4.9711150
5310,"Dhuy",50.5596400,4.8593000
5310,"EghezÉe",50.5926500,4.9036500
5310,"Hanret",50.5809200,4.9476700
5310,"Leuze",50.5460400,4.9061900
5310,"Liernu",50.5836900,4.8307700
5310,"Longchamps",50.5778700,4.8926200
5310,"Mehaigne",50.5944300,4.8760700
5310,"Noville-Sur-Méhaigne",50.6092400,4.8930800
5310,"Saint-Germain",50.5726600,4.8422000
5310,"Taviers",50.6173300,4.9315400
5310,"Upigny",50.5716300,4.8722300
5310,"Waret-La-Chaussée",50.5428100,4.9264400
5330,"Assesse",50.3777222,4.9421604
5330,"Maillen",50.3772130,4.9707476
5330,"Sart-Bernard",50.4024400,4.9630800
5332,"Crupet",50.3500900,4.9612400
5333,"Sorinne-La-Longue",50.3893000,5.0255100
5334,"Florée",50.3742000,5.0688500
5336,"Courrière",50.3799400,4.9853200
5340,"Faulx-Les-Tombes",50.4269300,5.0208900
5340,"Gesves",50.4024613,5.0755536
5340,"Haltinne",50.4511000,5.0750100
5340,"Mozet",50.4442500,4.9853700
5340,"Sorée",50.3973972,5.1200129
5350,"Evelette",50.4118900,5.1736400
5350,"Ohey",50.4145401,5.1673861
5351,"Haillot",50.4421500,5.1542000
5352,"Perwez-Haillot",50.4521300,5.1717400
5353,"Goesnes",50.4400100,5.2209400
5354,"Jallet",50.4432800,5.1833800
5360,"Hamois",50.3453749,5.0922322
5360,"Natoye",50.3430100,5.0580400
5361,"Mohiville",50.3181200,5.1924000
5361,"Scy",50.3047900,5.2071800
5362,"Achet",50.3329900,5.1749300
5363,"Emptinne",50.3254300,5.1230900
5364,"Schaltin",50.3589400,5.1245200
5370,"Barvaux-Condroz",50.3289100,5.2609000
5370,"Flostoy",50.3888599,5.1838818
5370,"Havelange",50.3647074,5.2395547
5370,"Jeneffe",50.3540700,5.2400500
5370,"Porcheresse",50.3401200,5.2419500
5370,"Verlée",50.3678400,5.2793600
5372,"Méan",50.3632300,5.3363400
5374,"Maffe",50.3535100,5.3114000
5376,"Miécret",50.3668751,5.2486422
5377,"Baillonville",50.2899325,5.3386650
5377,"Bonsin",50.3740147,5.3826276
5377,"Heure",50.2942459,5.2964444
5377,"Hogne",50.2490867,5.2797819
5377,"Nettinne",50.2907723,5.2588027
5377,"Noiseux",50.2991028,5.3746071
5377,"Sinsin",50.2748559,5.2547880
5377,"Somme-Leuze",50.3399215,5.3700866
5377,"Waillet",50.2604353,5.3045240
5380,"Bierwart",50.5558200,5.0362800
5380,"Cortil-Wodon",50.5676700,4.9568900
5380,"Fernelmont",50.5521080,4.9855088
5380,"Forville",50.5739100,4.9982800
5380,"Franc-Waret",50.5208100,4.9814100
5380,"Hemptinne",50.6032700,4.9883800
5380,"Hingeon",50.5254500,5.0068700
5380,"Marchovelette",50.5228500,4.9414900
5380,"Noville-Les-Bois",50.5567600,4.9841900
5380,"Pontillas",50.5490900,5.0210400
5380,"Tillier",50.5445900,4.9458100
5500,"Anseremme",50.2396000,4.8995100
5500,"Bouvignes-Sur-Meuse",50.2721114,4.8992600
5500,"Dinant",50.2340362,4.9169434
5500,"Dréhance",50.2370200,4.9440600
5500,"Falmagne",50.1999538,4.8977622
5500,"Falmignoul",50.2054304,4.8926759
5500,"Furfooz",50.2239409,4.9588076
5501,"Lisogne",50.2808581,4.9710519
5502,"Thynes",50.2795875,4.9871679
5503,"Sorinnes",50.2592464,4.9789243
5504,"Foy-Notre-Dame",50.2469536,4.9898697
5520,"Anthée",50.2400205,4.7612111
5520,"Onhaye",50.2425159,4.8379125
5521,"Serville",50.2501038,4.7806100
5522,"Falaen",50.2789650,4.7936119
5523,"Sommière",50.2737609,4.8428128
5523,"Weillen",50.2605516,4.8251335
5524,"Gerin",50.2460666,4.8161879
5530,"Dorinne",50.3150100,4.9758800
5530,"Durnal",50.3363000,4.9866200
5530,"Evrehailles",50.3204600,4.9120600
5530,"Godinne",50.3478800,4.8732500
5530,"Houx",50.3017300,4.8983400
5530,"Mont",50.3533500,4.9029100
5530,"Purnode",50.3121800,4.9440300
5530,"Spontin",50.3223300,5.0057500
5530,"Yvoir",50.3269678,4.8778583
5537,"AnhÉe",50.3106400,4.8782900
5537,"Annevoie-Rouillon",50.3473800,4.8488200
5537,"Bioul",50.3311200,4.7961000
5537,"Denée",50.3186200,4.7522300
5537,"Haut-Le-Wastia",50.3059700,4.8429300
5537,"Sosoye",50.2951800,4.7818300
5537,"Warnant",50.3228400,4.8444000
5540,"HastiÈre",50.2127777,4.8080740
5540,"Hastière-Lavaux",50.2183000,4.8245500
5540,"Hermeton-Sur-Meuse",50.1977600,4.8167200
5540,"Waulsort",50.2036200,4.8662100
5541,"Hastière-Par-Delà",50.2147900,4.8290400
5542,"Blaimont",50.1919700,4.8429500
5543,"Heer",50.1634700,4.8320800
5544,"Agimont",50.1657300,4.7959400
5550,"Alle",49.8420224,4.9696522
5550,"Bagimont",49.8241864,4.8751812
5550,"Bohan",49.8635093,4.8853198
5550,"Chairière",49.8620429,4.9511929
5550,"Laforet",49.8632092,4.9299586
5550,"Membre",49.8657061,4.9019226
5550,"Mouzaive",49.8537900,4.9631800
5550,"Nafraiture",49.9108760,4.9174164
5550,"Orchimont",49.8936202,4.9282121
5550,"Pussemange",49.8112700,4.8683500
5550,"Sugny",49.8143846,4.9019318
5550,"Vresse-Sur-Semois",49.8725882,4.9326558
5555,"Baillamont",49.8994166,5.0264170
5555,"Bellefontaine",49.9176070,4.9726249
5555,"BiÈvre",49.9414154,5.0165882
5555,"Cornimont",49.8622424,4.9983726
5555,"Graide",49.9514860,5.0661187
5555,"Gros-Fays",49.8704212,4.9831444
5555,"Monceau-En-Ardenne",49.9057594,4.9877688
5555,"Naomé",49.9220528,5.0892790
5555,"Oizy",49.8936411,5.0091739
5555,"Petit-Fays",49.9020888,4.9686731
5560,"Ciergnon",50.1676470,5.0881633
5560,"Finnevaux",50.1580053,4.9441390
5560,"Houyet",50.1694226,4.9798922
5560,"Hulsonniaux",50.2013267,4.9465427
5560,"Mesnil-Eglise",50.1649400,4.9634900
5560,"Mesnil-Saint-Blaise",50.1688094,4.8850580
5561,"Celles",50.2303800,5.0057628
5562,"Custinne",50.2109877,5.0490632
5563,"Hour",50.1617078,5.0403821
5564,"Wanlin",50.1595134,5.0620298
5570,"Baronville",50.1271366,4.9443786
5570,"Beauraing",50.1003926,4.9059609
5570,"Dion",50.1177827,4.8891263
5570,"Felenne",50.0681342,4.8491337
5570,"Feschaux",50.1511238,4.9148950
5570,"Honnay",50.0816488,5.0393176
5570,"Javingue",50.1022158,4.9190727
5570,"Vonêche",50.0614965,4.9780885
5570,"Wancennes",50.0917430,4.9616119
5570,"Winenne",50.0967777,4.8939936
5571,"Wiesme",50.1484609,4.9773685
5572,"Focant",50.1317614,5.0379324
5573,"Martouzin-Neuville",50.1173860,5.0055552
5574,"Pondrôme",50.0988595,5.0101680
5575,"Bourseigne-Neuve",50.0248700,4.8548600
5575,"Bourseigne-Vieille",50.0221200,4.8702400
5575,"Gedinne",49.9808100,4.9370700
5575,"Houdremont",49.9414800,4.9442600
5575,"Louette-Saint-Denis",49.9583700,4.9578600
5575,"Louette-Saint-Pierre",49.9605400,4.9274800
5575,"Malvoisin",50.0110700,4.9623900
5575,"Patignies",50.0000300,4.9513000
5575,"Rienne",49.9923900,4.8844600
5575,"Sart-Custinne",50.0014700,4.9167500
5575,"Vencimont",50.0316900,4.9206300
5575,"Willerzie",49.9877800,4.8508300
5576,"Froidfontaine",50.0595602,4.9997173
5580,"Ave-Et-Auffe",50.1127200,5.1424600
5580,"Buissonville",50.2164000,5.2018600
5580,"Eprave",50.1439900,5.1591300
5580,"Han-Sur-Lesse",50.1254300,5.1875600
5580,"Jemelle",50.1625000,5.2662300
5580,"Lavaux-Saint-Anne",50.1152632,5.0932728
5580,"Lessive",50.1392100,5.1466200
5580,"Mont-Gauthier",50.2102900,5.1227300
5580,"Rochefort",50.1596036,5.2221665
5580,"Villers-Sur-Lesse",50.1535200,5.1136700
5580,"Wavreille",50.1210400,5.2484800
5589,"Jemelle",50.1357728,5.2796237
5590,"Achêne",50.2666792,5.0456342
5590,"Braibant",50.3131545,5.0606598
5590,"Chevetogne",50.2230794,5.1217844
5590,"Ciney",50.2956773,5.1008307
5590,"Conneux",50.2500686,5.0596284
5590,"Haversin",50.2491900,5.1957100
5590,"Leignon",50.2677216,5.1098975
5590,"Pessoux",50.2830932,5.1709610
5590,"Serinchamps",50.2309395,5.2289113
5590,"Sovet",50.2964987,5.0364195
5600,"Fagnolle",50.1049300,4.5608300
5600,"Franchimont",50.1887500,4.6282400
5600,"Jamagne",50.2173200,4.5308100
5600,"Jamiolle",50.2098800,4.5066600
5600,"Merlemont",50.1764500,4.6111000
5600,"Neuville",50.1724900,4.5145200
5600,"Omezée",50.1926700,4.7017400
5600,"Philippeville",50.1958462,4.5430358
5600,"Roly",50.1359100,4.5373600
5600,"Romedenne",50.1711300,4.6987000
5600,"Samart",50.1782100,4.5341700
5600,"Sart-En-Fagne",50.1587000,4.6220100
5600,"Sautour",50.1701800,4.5604300
5600,"Surice",50.1824900,4.7001700
5600,"Villers-En-Fagne",50.1472100,4.5856600
5600,"Villers-Le-Gambon",50.1912900,4.6094400
5600,"Vodecée",50.1979600,4.5930800
5620,"Corenne",50.2522700,4.6802100
5620,"Flavion",50.2496000,4.7182400
5620,"Florennes",50.2451448,4.6468567
5620,"Hemptinne-Lez-Florennes",50.2451448,4.6468567
5620,"Morville",50.2304700,4.7418600
5620,"Rosée",50.2330700,4.6895900
5620,"Saint-Aubin",50.2485100,4.5765700
5621,"Hanzinelle",50.2957100,4.5598900
5621,"Hanzinne",50.3129400,4.5454700
5621,"Morialmé",50.2749800,4.5659300
5621,"Thy-Le-Baudouin",50.2961900,4.5229600
5630,"Cerfontaine",50.1514001,4.3847036
5630,"Daussois",50.2195367,4.4563959
5630,"Senzeille",50.1768040,4.4646004
5630,"Silenrieux",50.2245931,4.4121787
5630,"Soumoy",50.1899126,4.4382183
5630,"Villers-Deux-Eglises",50.1899091,4.4824262
5640,"Biesme",50.3398700,4.6102400
5640,"Biesmerée",50.2974000,4.6800500
5640,"Graux",50.3250100,4.7197200
5640,"Mettet",50.3174893,4.6464726
5640,"Oret",50.3020600,4.6157400
5640,"Saint-Gérard",50.3459700,4.7407000
5641,"Furnaux",50.3080300,4.7049700
5644,"Ermeton-Sur-Biert",50.2968900,4.7190600
5646,"Stave",50.2800200,4.6592400
5650,"Castillon",50.2466601,4.3523863
5650,"Chastrès",50.2679644,4.4596788
5650,"Clermont",50.2603112,4.3171266
5650,"Fontenelle",50.2479938,4.3837031
5650,"Fraire",50.2596787,4.5084637
5650,"Pry",50.2710178,4.4304388
5650,"Vogenée",50.2404180,4.4526070
5650,"Walcourt",50.2537328,4.4267048
5650,"Yves-Gomezée",50.2390518,4.4936392
5651,"Berzée",50.2886700,4.4015100
5651,"Gourdinne",50.2900400,4.4578000
5651,"Laneffe",50.2774300,4.4909000
5651,"Rognée",50.2671200,4.3901100
5651,"Somzée",50.2951700,4.4833600
5651,"Tarcienne",50.3116000,4.4963700
5651,"Thy-Le-Château",50.2807700,4.4326500
5660,"Aublain",50.0682518,4.4087076
5660,"Boussu-En-Fagne",50.0758726,4.4713875
5660,"Brûly",49.9686542,4.5275589
5660,"Brûly-De-Pesche",50.0016768,4.4649941
5660,"Couvin",50.0519700,4.4945700
5660,"Cul-Des-Sarts",49.9625539,4.4547813
5660,"Dailly",50.0579064,4.4359678
5660,"Frasnes",50.0772664,4.5087651
5660,"Gonrieux",50.0361913,4.4262251
5660,"Mariembourg",50.0947687,4.5218479
5660,"Pesche",50.0423072,4.4586142
5660,"Petigny",50.0586880,4.5319453
5660,"Petite-Chapelle",49.9499922,4.5089898
5660,"Presgaux",50.0248577,4.4197205
5670,"Dourbes",50.0916165,4.5919434
5670,"Le Mesnil",50.0313519,4.6716440
5670,"Mazée",50.1010872,4.6958496
5670,"Nismes",50.0748018,4.5483364
5670,"Oignies-En-Thiérache",50.0238633,4.6392754
5670,"Olloy-Sur-Viroin",50.0720497,4.6074520
5670,"Treignes",50.0926670,4.6708276
5670,"Vierves-Sur-Viroin",50.0802842,4.6353180
5670,"Viroinval",50.0714722,4.6059942
5680,"Doische",50.1362261,4.7461199
5680,"Gimnée",50.1314900,4.7092500
5680,"Gochenée",50.1838510,4.7599339
5680,"Matagne-La-Grande",50.1208100,4.6114600
5680,"Matagne-La-Petite",50.1168400,4.6380000
5680,"Niverlée",50.1180600,4.6998500
5680,"Romerée",50.1358500,4.6753800
5680,"Soulme",50.1887300,4.7373500
5680,"Vaucelles",50.1128600,4.7434500
5680,"Vodelée",50.1724500,4.7323200
6000,"Charleroi",50.4108998,4.4446709
6001,"Marcinelle",50.4001435,4.4330445
6010,"Couillet",50.3914084,4.4589418
6020,"Dampremy",50.4171274,4.4308155
6030,"Goutroux",50.4068438,4.3607435
6030,"Marchienne-Au-Pont",50.4055222,4.3957235
6031,"Monceau-Sur-Sambre",50.4166487,4.3763590
6032,"Mont-Sur-Marchienne",50.3886584,4.4054580
6040,"Jumet",50.4427249,4.4370311
6041,"Gosselies",50.4689729,4.4322409
6042,"Lodelinsart",50.4315093,4.4471800
6043,"Ransart",50.4617198,4.4760083
6044,"Roux",50.4411759,4.3859913
6060,"Gilly",50.4240349,4.4785997
6061,"Montignies-Sur-Sambre",50.4018544,4.4777803
6099,"Charleroi X",50.3845193,4.4636041
6110,"Montigny-Le-Tilleul",50.3744413,4.3779578
6111,"Landelies",50.3798000,4.3507500
6120,"Cour-Sur-Heure",50.3002201,4.3894514
6120,"Ham-Sur-Heure",50.3221203,4.3880774
6120,"Jamioulx",50.3528183,4.4127538
6120,"Marbaix",50.3298860,4.3698110
6120,"Nalinnes",50.3241156,4.4465124
6140,"Fontaine-L'evÊque",50.4100558,4.3249526
6141,"Forchies-La-Marche",50.4366400,4.3203600
6142,"Leernes",50.3982100,4.3321700
6150,"Anderlues",50.4060400,4.2839400
6180,"Courcelles",50.4577042,4.3662504
6181,"Gouy-Lez-Piéton",50.4908073,4.3342955
6182,"Souvret",50.4506298,4.3497084
6183,"Trazegnies",50.4626925,4.3301766
6200,"Bouffioulx",50.3907200,4.5163500
6200,"ChÂtelet",50.4061000,4.5278600
6200,"Châtelineau",50.4153300,4.5198600
6210,"Frasnes-Lez-Gosselies",50.5314655,4.4461637
6210,"Les Bons Villers",50.5427462,4.4476802
6210,"Rèves",50.5377515,4.4144975
6210,"Villers-Perwin",50.5262517,4.4780447
6210,"Wayaux",50.4899237,4.4736079
6211,"Mellet",50.5050113,4.4850788
6220,"Fleurus",50.4771076,4.5363885
6220,"Heppignies",50.4845000,4.4957500
6220,"Lambusart",50.4545300,4.5533200
6220,"Wangenies",50.4795700,4.5198600
6221,"Saint-Amand",50.5063700,4.5498600
6222,"Brye",50.5239700,4.5580900
6223,"Wagnelée",50.5230100,4.5337100
6224,"Wanfercée-Baulet",50.4727400,4.5878300
6230,"Buzet",50.5381032,4.3667175
6230,"Obaix",50.5424526,4.3175513
6230,"Pont-À-Celles",50.5135550,4.3581617
6230,"Thiméon",50.4853430,4.4297958
6230,"Viesville",50.4897213,4.4088253
6238,"Liberchies",50.5138157,4.4215203
6238,"Luttre",50.5097805,4.3914653
6240,"Farciennes",50.4299400,4.5415000
6240,"Pironchamps",50.4324843,4.5364464
6250,"Aiseau",50.4111400,4.5864400
6250,"Aiseau-Presles",50.4100045,4.5866980
6250,"Pont-De-Loup",50.4161900,4.5454700
6250,"Presles",50.3839100,4.5786600
6250,"Roselies",50.4297800,4.5717900
6280,"Acoz",50.3585800,4.5339100
6280,"Gerpinnes",50.3373282,4.5277925
6280,"Gougnies",50.3552000,4.5752800
6280,"Joncret",50.3534400,4.5133300
6280,"Loverval",50.3747000,4.4737000
6280,"Villers-Poterie",50.3536300,4.5490500
6440,"Boussu-Lez-Walcourt",50.2278614,4.3780579
6440,"Fourbechies",50.1636881,4.3107812
6440,"Froidchapelle",50.1500253,4.3282168
6440,"Vergnies",50.1988476,4.3047818
6441,"Erpion",50.2115372,4.3555674
6460,"Bailièvre",50.0691900,4.2384400
6460,"Chimay",50.0844529,4.2660214
6460,"Robechies",50.0727500,4.2772500
6460,"Saint-Remy",50.0453800,4.2919300
6460,"Salles",50.0554400,4.2446300
6460,"Villers-La-Tour",50.0360100,4.2613100
6461,"Virelles",50.0658200,4.3352600
6462,"Vaulx-Lez-Chimay",50.0611800,4.3648700
6463,"Lompret",50.0640900,4.3783900
6464,"Baileux",50.0287100,4.3760500
6464,"Bourlers",50.0271600,4.3410000
6464,"Forges",50.0257600,4.3279200
6464,"L'escaillère",49.9453667,4.4309752
6464,"Rièzes",49.9591400,4.3689100
6470,"Grandrieu",50.2007845,4.1720392
6470,"Montbliart",50.1344705,4.2240647
6470,"Rance",50.1433700,4.2691300
6470,"Sautin",50.1636283,4.2257553
6470,"Sivry",50.1660176,4.1820860
6470,"Sivry-Rance",50.1699509,4.1813855
6500,"Barbençon",50.2216018,4.2843778
6500,"Beaumont",50.2190423,4.2497858
6500,"Leugnies",50.2230128,4.1975122
6500,"Leval-Chaudeville",50.2355400,4.2094900
6500,"Renlies",50.1914031,4.2664251
6500,"Solre-Saint-Géry",50.2151129,4.2439166
6500,"Thirimont",50.2611798,4.2357279
6511,"Strée",50.2750402,4.2888150
6530,"Leers-Et-Fosteau",50.3044451,4.2457958
6530,"Thuin",50.3414098,4.2928918
6531,"Biesme-Sous-Thuin",50.3220429,4.3087831
6532,"Ragnies",50.3085551,4.2841508
6533,"Biercée",50.3245498,4.2594865
6534,"Gozée",50.3334575,4.3516140
6536,"Donstiennes",50.2864402,4.3121002
6536,"Thuillies",50.3003425,4.3309528
6540,"Lobbes",50.3682434,4.2662585
6540,"Mont-Sainte-Geneviève",50.3722603,4.2365499
6542,"Sars-La-Buissière",50.3397381,4.2098006
6543,"Bienne-Lez-Happart",50.3521841,4.2161850
6560,"Bersillies-L'abbaye",50.2630353,4.1490501
6560,"Erquelinnes",50.3073558,4.1113839
6560,"Grand-Reng",50.3306631,4.0747949
6560,"Hantes-Wihéries",50.3053426,4.1778621
6560,"Montignies-Saint-Christophe",50.2822050,4.1914995
6560,"Solre-Sur-Sambre",50.3071512,4.1578836
6567,"Fontaine-Valmont",50.3180022,4.2155052
6567,"Labuissière",50.3158540,4.1854165
6567,"Merbes-Le-ChÂteau",50.3244185,4.1645212
6567,"Merbes-Sainte-Marie",50.3557862,4.1708963
6590,"Momignies",50.0310150,4.1789941
6591,"Macon",50.0506200,4.2091200
6592,"Monceau-Imbrechies",50.0379600,4.2277300
6593,"Macquenoise",49.9755900,4.1786200
6594,"Beauwelz",50.0140100,4.1565100
6596,"Forge-Philippe",49.9668700,4.2529900
6596,"Seloignes",50.0152500,4.2561300
6600,"Bastogne",50.0005973,5.7152666
6600,"Longvilly",50.0248837,5.8364836
6600,"Noville",50.0637281,5.7607706
6600,"Villers-La-Bonne-Eau",49.9340321,5.7481956
6600,"Wardin",49.9911002,5.7882474
6630,"Martelange",49.8324009,5.7402041
6637,"Fauvillers",49.8515620,5.6627735
6637,"Hollange",49.9064911,5.6888102
6637,"Tintange",49.8787550,5.7515418
6640,"Hompré",49.9443952,5.6869659
6640,"Morhet",49.9633899,5.5841583
6640,"Nives",49.9091097,5.6069934
6640,"Sibret",49.9706602,5.6341847
6640,"Vaux-Lez-Rosières",49.9125000,5.5677000
6640,"Vaux-Sur-SÛre",49.9444556,5.6202645
6642,"Juseret",49.8797422,5.5492587
6660,"Houffalize",50.1419014,5.6912202
6660,"Nadrin",50.1590020,5.6827858
6661,"Mont",50.1532229,5.7695926
6661,"Tailles",50.2265221,5.7466501
6662,"Tavigny",50.1088963,5.8393883
6663,"Mabompré",50.0989674,5.7403204
6666,"Wibrin",50.1661241,5.7175372
6670,"Gouvy",50.1457074,5.9245645
6670,"Limerlé",50.1572636,5.9243825
6671,"Bovigny",50.2250817,5.9190550
6672,"Beho",50.2196586,5.9980109
6673,"Cherain",50.1805372,5.8653043
6674,"Montleban",50.2120826,5.8376462
6680,"Amberloup",50.0317221,5.5296068
6680,"Sainte-Ode",50.0199719,5.5480905
6680,"Tillet",50.0104453,5.5296828
6681,"Lavacherie",50.0528654,5.5100095
6686,"Flamierge",50.0335764,5.6043762
6687,"Bertogne",50.0908293,5.6808856
6688,"Longchamps",50.0535609,5.6908206
6690,"Bihain",50.2380618,5.8087170
6690,"Vielsalm",50.2517425,5.8711513
6692,"Petit-Thier",50.3077974,5.9676006
6698,"Grand-Halleux",50.3260048,5.9066265
6700,"Arlon",49.6851364,5.8104804
6700,"Bonnert",49.7108981,5.8187693
6700,"Heinsch",49.6995172,5.7464653
6700,"Toernich",49.6524910,5.7791223
6704,"Guirsch",49.7098711,5.8286286
6706,"Autelbas",49.6480677,5.8624158
6717,"Attert",49.7506889,5.7865368
6717,"Nobressart",49.7399967,5.7178818
6717,"Nothomb",49.7723268,5.7885145
6717,"Thiaumont",49.7153956,5.7307767
6717,"Tontelange",49.7259512,5.8098272
6720,"Habay",49.7267434,5.6634857
6720,"Habay-La-Neuve",49.7280718,5.6460452
6720,"Hachy",49.7018218,5.6804220
6721,"Anlier",49.7718846,5.6208137
6723,"Habay-La-Vieille",49.7234933,5.6192831
6724,"Houdemont",49.7188508,5.5840477
6724,"Rulles",49.7184613,5.5596208
6730,"Bellefontaine",49.6639401,5.4964735
6730,"Rossignol",49.7175007,5.4856597
6730,"Saint-Vincent",49.6772976,5.4757436
6730,"Tintigny",49.6833444,5.5131279
6740,"Etalle",49.6694372,5.5779600
6740,"Sainte-Marie-Sur-Semois",49.6711700,5.5635800
6740,"Villers-Sur-Semois",49.6984089,5.5598847
6741,"Vance",49.6713167,5.6658379
6742,"Chantemelle",49.6529102,5.6526951
6743,"Buzenol",49.6456653,5.5953405
6747,"Châtillon",49.6248000,5.6965700
6747,"Meix-Le-Tige",49.6170900,5.7206900
6747,"Saint-LÉger",49.6119564,5.6566551
6750,"Musson",49.5581782,5.7056943
6750,"Mussy-La-Ville",49.5706730,5.6620086
6750,"Signeulx",49.5522300,5.6380500
6760,"Bleid",49.5693096,5.6280964
6760,"Ethe",49.5796692,5.5819087
6760,"Ruette",49.5365538,5.5949257
6760,"Virton",49.5871911,5.5862953
6761,"Latour",49.5575295,5.5705855
6762,"Saint-Mard",49.5542548,5.5346766
6767,"Dampicourt",49.5566955,5.4759516
6767,"Harnoncourt",49.5355121,5.4996269
6767,"Lamorteau",49.5259975,5.4807287
6767,"Rouvroy",49.5381200,5.4918900
6767,"Torgny",49.5080762,5.4740405
6769,"Gérouville",49.6204111,5.4269360
6769,"Meix-Devant-Virton",49.6056457,5.4780041
6769,"Robelmont",49.5944837,5.5078905
6769,"Sommethonne",49.5785062,5.4478548
6769,"Villers-La-Loue",49.5745676,5.4821567
6780,"Hondelange",49.6334358,5.8362868
6780,"Messancy",49.6216258,5.8214036
6780,"Wolkrange",49.6337423,5.7994452
6781,"Sélange",49.6093822,5.8466761
6782,"Habergy",49.6142745,5.7596109
6790,"Aubange",49.5608954,5.8088730
6791,"Athus",49.5628647,5.8347138
6792,"Halanzy",49.5565078,5.7432347
6792,"Rachecourt",49.5911813,5.7267117
6800,"Bras",49.9750202,5.3892229
6800,"Freux",49.9699861,5.4504457
6800,"Libramont-Chevigny",49.9184200,5.3745800
6800,"Moircy",49.9895785,5.4695106
6800,"Recogne",49.9110798,5.3602530
6800,"Remagne",49.9766169,5.4943517
6800,"Saint-Pierre",49.9036915,5.3880072
6800,"Sainte-Marie-Chevigny",49.9234787,5.4582979
6810,"Chiny",49.6989693,5.3867430
6810,"Izel",49.6937299,5.3722119
6810,"Jamoigne",49.6948710,5.4146049
6811,"Les Bulles",49.7042122,5.4239144
6812,"Suxy",49.7639751,5.3993485
6813,"Termes",49.7078398,5.4578124
6820,"Florenville",49.7270823,5.2201330
6820,"Fontenoille",49.7150554,5.2343041
6820,"Muno",49.7163845,5.1751412
6820,"Sainte-Cécile",49.7296613,5.2428643
6821,"Lacuisine",49.7163512,5.3173471
6823,"Villers-Devant-Orval",49.6196324,5.3314402
6824,"Chassepierre",49.7076672,5.2603388
6830,"Bouillon",49.7892158,5.0905007
6830,"Les Hayons",49.8129802,5.1453939
6830,"Poupehan",49.8115256,5.0027630
6830,"Rochehaut",49.8411879,5.0076505
6831,"Noirfontaine",49.8202036,5.0942677
6832,"Sensenruth",49.8244628,5.0762113
6833,"Ucimont",49.8317003,5.0584360
6833,"Vivy",49.8668760,5.0384163
6834,"Bellevaux",49.8405538,5.1101023
6836,"Dohan",49.7960885,5.1428394
6838,"Corbion",49.7971683,5.0076838
6840,"Grandvoir",49.8583500,5.3727200
6840,"Grapfontaine",49.8221000,5.4062000
6840,"Hamipré",49.8374900,5.4573500
6840,"Longlier",49.8554400,5.4528800
6840,"NeufchÂteau",49.8417539,5.4341770
6840,"Tournay",49.8546900,5.3976500
6850,"Carlsbourg",49.8947012,5.0822437
6850,"Offagne",49.8861615,5.1749738
6850,"Paliseul",49.9037127,5.1345943
6851,"Nollevaux",49.8712705,5.1210695
6852,"Maissin",49.9646508,5.1791072
6852,"Opont",49.9355975,5.1195934
6853,"Framont",49.9192841,5.1605186
6856,"Fays-Les-Veneurs",49.8665022,5.1613778
6860,"Assenois",49.8015106,5.4651471
6860,"Ebly",49.8531341,5.5404417
6860,"LÉglise",49.8000180,5.5376280
6860,"Mellier",49.7685936,5.5221492
6860,"Witry",49.8596108,5.6131081
6870,"Arville",50.0323784,5.3193343
6870,"Awenne",50.0742236,5.3066608
6870,"Hatrival",50.0050863,5.3451907
6870,"Mirwart",50.0564514,5.2638388
6870,"Saint-Hubert",50.0260067,5.3727272
6870,"Vesqueville",50.0059895,5.3945290
6880,"Auby-Sur-Semois",49.8158343,5.1831373
6880,"Bertrix",49.8542350,5.2535561
6880,"Cugnon",49.8023095,5.2025910
6880,"Jehonville",49.9068245,5.2003751
6880,"Orgeo",49.8364639,5.2995526
6887,"Herbeumont",49.7809500,5.2376000
6887,"Saint-Médard",49.8118200,5.3280500
6887,"Straimont",49.7955100,5.3815000
6890,"Anloy",49.9494863,5.2217260
6890,"Libin",49.9815451,5.2572000
6890,"Ochamps",49.9249054,5.2775069
6890,"Redu",50.0075195,5.1597629
6890,"Smuid",50.0187650,5.2667659
6890,"Transinne",50.0005430,5.2035647
6890,"Villance",49.9710047,5.2204298
6900,"Aye",50.2249300,5.2969500
6900,"Hargimont",50.1862400,5.3062500
6900,"Humain",50.2050100,5.2566100
6900,"Marche-En-Famenne",50.2282896,5.3441606
6900,"On",50.1738200,5.2878300
6900,"Roy",50.1858600,5.4070700
6900,"Waha",50.2119100,5.3429600
6920,"Sohier",50.0683180,5.0678053
6920,"Wellin",50.0575065,5.0650474
6921,"Chanly",50.0796147,5.1540758
6922,"Halma",50.0757255,5.1363449
6924,"Lomprez",50.0762069,5.0923960
6927,"Bure",50.0883647,5.2594882
6927,"Grupont",50.0917339,5.2801805
6927,"Resteigne",50.0836994,5.1761749
6927,"Tellin",50.0833973,5.2208099
6929,"Daverdisse",50.0203010,5.1182335
6929,"Gembes",49.9948698,5.0656928
6929,"Haut-Fays",50.0011935,5.0175845
6929,"Porcheresse",49.9782394,5.0870126
6940,"Barvaux-Sur-Ourthe",50.3506400,5.4930600
6940,"Durbuy",50.3350543,5.4345624
6940,"Grandhan",50.3294600,5.4113200
6940,"Septon",50.3550600,5.4216800
6940,"Wéris",50.3261200,5.5304800
6941,"Bende",50.4195400,5.4154400
6941,"Bomal-Sur-Ourthe",50.3790100,5.5234800
6941,"Borlon",50.3790000,5.4051100
6941,"Heyd",50.3472500,5.5618800
6941,"Izier",50.3838030,5.5795356
6941,"Tohogne",50.3797500,5.4801300
6941,"Villers-Sainte-Gertrude",50.3616152,5.5800674
6950,"Harsin",50.1735662,5.3479488
6950,"Nassogne",50.1109477,5.3664669
6951,"Bande",50.1670102,5.4155200
6952,"Grune",50.1547678,5.3812924
6953,"Ambly",50.1443527,5.3117953
6953,"Forrières",50.1338181,5.2807925
6953,"Lesterny",50.1116414,5.2801707
6953,"Masbourg",50.1134100,5.3137400
6960,"Dochamps",50.2327700,5.6234300
6960,"Grandmenil",50.2905100,5.6598900
6960,"Harre",50.3505500,5.6561700
6960,"Malempré",50.2817300,5.7124300
6960,"Manhay",50.2908885,5.6614499
6960,"Odeigne",50.2569300,5.6802200
6960,"Vaux-Chavanne",50.3048400,5.6912300
6970,"Tenneville",50.0859055,5.4613070
6971,"Champlon",50.1074532,5.5021264
6972,"Erneuville",50.1128285,5.5493302
6980,"Beausaint",50.1700454,5.5539293
6980,"La Roche-En-Ardenne",50.1845991,5.5556243
6982,"Samrée",50.2112349,5.6342111
6983,"Ortho",50.1250676,5.6139791
6984,"Hives",50.1505142,5.5776532
6986,"Halleux",50.1721642,5.5010126
6987,"Beffe",50.2450200,5.5235500
6987,"Hodister",50.1999000,5.4960300
6987,"Marcourt",50.2144500,5.5316100
6987,"Rendeux",50.2348339,5.5081521
6990,"Fronville",50.2944800,5.4220800
6990,"Hampteau",50.2586700,5.4704200
6990,"Hotton",50.2672800,5.4456800
6990,"Marenne",50.2425100,5.4163900
6997,"Amonines",50.2647400,5.5580900
6997,"ErezÉe",50.2917200,5.5585300
6997,"Mormont",50.3254541,5.5930056
6997,"Soy",50.2856400,5.5110700
7000,"Mons",50.4542165,3.9566904
7010,"Shape",50.4969668,3.9821153
7011,"Ghlin",50.4642964,3.8877424
7012,"Flénu",50.4336915,3.8889901
7012,"Jemappes",50.4479352,3.8990501
7020,"Maisières",50.4885712,3.9653190
7020,"Nimy",50.4765848,3.9552523
7021,"Havre",50.4639119,4.0453246
7022,"Harmignies",50.4060459,4.0174614
7022,"Harveng",50.3946189,3.9871020
7022,"Hyon",50.4395855,3.9607279
7022,"Mesvin",50.4259641,3.9582718
7022,"Nouvelles",50.4104361,3.9671418
7024,"Ciply",50.4219839,3.9462109
7030,"Saint-Symphorien",50.4378687,4.0118304
7031,"Villers-Saint-Ghislain",50.4320932,4.0409306
7032,"Spiennes",50.4251859,3.9893210
7033,"Cuesmes",50.4362266,3.9240678
7034,"Obourg",50.4742413,4.0091225
7034,"Saint-Denis",50.4910335,4.0192594
7040,"Asquillies",50.4006600,3.9544700
7040,"Aulnois",50.3404800,3.9020000
7040,"Blaregnies",50.3571500,3.8970400
7040,"Bougnies",50.3869400,3.9386300
7040,"Genly",50.3910334,3.9121820
7040,"Goegnies-Chaussée",50.3423500,3.9468600
7040,"QuÉvy",50.3543123,3.9274387
7040,"Quévy-Le-Grand",50.3606500,3.9472100
7040,"Quévy-Le-Petit",50.3685400,3.9335100
7041,"Givry",50.3794300,4.0358400
7041,"Havay",50.3615500,3.9833700
7050,"Erbaut",50.5329492,3.8841662
7050,"Erbisoeul",50.5161101,3.8966431
7050,"Herchies",50.5275483,3.8576244
7050,"Jurbise",50.5329145,3.9106591
7050,"Masnuy-Saint-Jean",50.5310497,3.9451238
7050,"Masnuy-Saint-Pierre",50.5364971,3.9608630
7060,"Horrues",50.6085349,4.0427256
7060,"Soignies",50.5777389,4.0573135
7061,"Casteau",50.5159354,4.0133385
7061,"Thieusies",50.5151741,4.0482964
7062,"Naast",50.5543555,4.0991332
7063,"Chaussée-Notre-Dame-Louvignies",50.5927405,3.9983062
7063,"Neufvilles",50.5685485,4.0026575
7070,"Gottignies",50.4965700,4.0603100
7070,"Le Roeulx",50.5029297,4.1087311
7070,"Mignault",50.5280000,4.1531300
7070,"Thieu",50.4736300,4.0915200
7070,"Ville-Sur-Haine",50.4752900,4.0691300
7080,"Eugies",50.3902100,3.8877700
7080,"Frameries",50.4109400,3.8955100
7080,"La Bouverie",50.4109300,3.8719200
7080,"Noirchain",50.4017600,3.9321800
7080,"Sars-La-Bruyère",50.3724700,3.8761100
7090,"Braine-Le-Comte",50.6093600,4.1348400
7090,"Hennuyères",50.6384300,4.1696000
7090,"Henripont",50.5993300,4.1854000
7090,"Petit-Roeulx-Lez-Braine",50.6253900,4.0886000
7090,"Ronquières",50.6079000,4.2209400
7090,"Steenkerque",50.6432500,4.0692200
7100,"Haine-Saint-Paul",50.4531300,4.1912600
7100,"Haine-Saint-Pierre",50.4541300,4.1996000
7100,"La LouviÈre",50.4693850,4.1892216
7100,"Saint-Vaast",50.4543100,4.1603600
7100,"Trivières",50.4504100,4.1480200
7110,"Boussoit",50.4602200,4.0778300
7110,"Houdeng-Aimeries",50.4857800,4.1446000
7110,"Houdeng-Goegnies",50.4881500,4.1542800
7110,"Maurage",50.4567000,4.0992700
7110,"Strépy-Bracquegnies",50.4805500,4.1200000
7120,"Croix-Lez-Rouveroy",50.3615200,4.0769200
7120,"Estinnes",50.4037945,4.1040785
7120,"Estinnes-Au-Mont",50.3965200,4.0962300
7120,"Estinnes-Au-Val",50.4111500,4.1040700
7120,"Fauroeulx",50.3702200,4.1104000
7120,"Haulchin",50.3843000,4.0818800
7120,"Peissant",50.3510600,4.1201500
7120,"Rouveroy",50.3554400,4.0621300
7120,"Vellereille-Le-Sec",50.4019500,4.0584700
7120,"Vellereille-Les-Brayeux",50.3793000,4.1519500
7130,"Battignies",50.4169100,4.1688900
7130,"Binche",50.4278907,4.1185307
7130,"Bray",50.4316400,4.1054300
7131,"Waudrez",50.4133200,4.1494800
7133,"Buvrinnes",50.3887300,4.2052400
7134,"Epinois",50.4055800,4.2072800
7134,"Leval-Trahegnies",50.4165300,4.2176600
7134,"Péronnes-Lez-Binche",50.4372200,4.1487400
7134,"Ressaix",50.4218800,4.1947500
7140,"Morlanwelz",50.4523812,4.2297719
7140,"Morlanwelz-Mariemont",50.4580800,4.2473900
7141,"Carnières",50.4413900,4.2549000
7141,"Mont-Sainte-Aldegonde",50.4305600,4.2334500
7160,"Chapelle-Lez-Herlaimont",50.4712400,4.2808200
7160,"Godarville",50.4962600,4.2884200
7160,"Piéton",50.4374900,4.2962200
7170,"Bellecourt",50.4830700,4.2543800
7170,"Bois-D'haine",50.5040700,4.2210800
7170,"Fayt-Lez-Manage",50.4870600,4.2276400
7170,"La Hestre",50.4759190,4.2299939
7170,"Manage",50.5030300,4.2352900
7180,"Seneffe",50.5285674,4.2721491
7181,"Arquennes",50.5678375,4.2748602
7181,"Familleureux",50.5228620,4.2110894
7181,"Feluy",50.5622070,4.2502650
7181,"Petit-Roeulx-Lez-Nivelles",50.5548179,4.3107658
7190,"Ecaussinnes",50.5606000,4.1724000
7190,"Ecaussinnes-D'enghien",50.5608812,4.1538788
7190,"Marche-Lez-Ecaussinnes",50.5469243,4.1819002
7191,"Ecaussinnes-Lalaing",50.5700581,4.1775465
7300,"Boussu",50.4258770,3.7969506
7301,"Hornu",50.4363400,3.8262700
7320,"Bernissart",50.4824696,3.6459245
7321,"Blaton",50.4992803,3.6598433
7321,"Harchies",50.4803048,3.6946534
7322,"Pommeroeul",50.4623107,3.7129612
7322,"Ville-Pommeroeul",50.4708319,3.7293137
7330,"Saint-Ghislain",50.4490864,3.8183635
7331,"Baudour",50.4832756,3.8377399
7332,"Neufmaison",50.5293542,3.7936731
7332,"Sirault",50.5041746,3.7899285
7333,"Tertre",50.4668162,3.8118542
7334,"Hautrage",50.4792056,3.7659709
7334,"Villerot",50.4865886,3.7905933
7340,"Colfontaine",50.4142300,3.8459800
7340,"Paturages",50.4048263,3.8383261
7340,"Warquignies",50.4010549,3.8216781
7340,"Wasmes",50.4219636,3.8449946
7350,"Hainin",50.4306618,3.7656597
7350,"Hensies",50.4324440,3.6844458
7350,"Montroeul-Sur-Haine",50.4355247,3.7039398
7350,"Thulin",50.4290487,3.7391863
7370,"Blaugies",50.3720160,3.8058371
7370,"Dour",50.4000125,3.7827922
7370,"Elouges",50.4025947,3.7522644
7370,"Wihéries",50.3854730,3.7525313
7380,"Baisieux",50.3905880,3.6975230
7380,"QuiÉvrain",50.4034322,3.6904002
7382,"Audregnies",50.3830616,3.7175716
7387,"Angre",50.3683900,3.6981300
7387,"Angreau",50.3506400,3.6908100
7387,"Athis",50.3656300,3.7780600
7387,"Autreppe",50.3491400,3.7344200
7387,"Erquennes",50.3594100,3.7934900
7387,"Fayt-Le-Franc",50.3581000,3.7713200
7387,"Honnelles",50.3666280,3.6942525
7387,"Marchipont",50.3750600,3.6725500
7387,"Montignies-Sur-Roc",50.3684100,3.7360800
7387,"Onnezies",50.3631900,3.7164700
7387,"Roisin",50.3330700,3.6935300
7390,"Quaregnon",50.4443909,3.8645777
7390,"Wasmuel",50.4456324,3.8453838
7500,"Ere",50.5809075,3.3683528
7500,"Saint-Maur",50.5727181,3.3945263
7500,"Tournai",50.6056059,3.3880367
7501,"Orcq",50.6049876,3.3492343
7502,"Esplechin",50.5736959,3.3039872
7503,"Froyennes",50.6229047,3.3471214
7504,"Froidmont",50.5784046,3.3280009
7506,"Willemeau",50.5734640,3.3491191
7520,"Ramegnies-Chin",50.6514220,3.3369103
7520,"Templeuve",50.6448071,3.2831590
7521,"Chercq",50.5894810,3.4220483
7522,"Blandain",50.6250532,3.3037827
7522,"Hertain",50.6134736,3.2896360
7522,"Lamain",50.6007064,3.2922108
7522,"Marquain",50.6042275,3.3226106
7530,"Gaurain-Ramecroix",50.5938686,3.4892888
7531,"Havinnes",50.6157317,3.4635170
7532,"Beclers",50.6209471,3.5046928
7533,"Thimougies",50.6345381,3.5096897
7534,"Barry",50.5848568,3.5416068
7534,"Maulde",50.6165291,3.5480139
7536,"Vaulx",50.5903852,3.4334752
7538,"Vezon",50.5719086,3.5002803
7540,"Kain",50.6379973,3.3788194
7540,"Melles",50.6466009,3.4826517
7540,"Quartes",50.6493706,3.5130780
7540,"Rumillies",50.6199434,3.4368434
7542,"Mont-Saint-Aubert",50.6548281,3.4040353
7543,"Mourcourt",50.6531232,3.4442619
7548,"Warchin",50.6103448,3.4233289
7600,"PÉruwelz",50.5149368,3.6013594
7601,"Roucourt",50.5291691,3.5871404
7602,"Bury",50.5424563,3.5934527
7603,"Bon-Secours",50.4974738,3.6073123
7604,"Baugnies",50.5615397,3.5517755
7604,"Braffe",50.5522367,3.5820315
7604,"Brasmenil",50.5414680,3.5468718
7604,"Callenelle",50.5313231,3.5243768
7604,"Wasmes-Audemez-Briffoeil",50.5512323,3.5359058
7608,"Wiers",50.5083673,3.5327736
7610,"Rumes",50.5548870,3.3022239
7611,"La Glanerie",50.5323250,3.3059430
7618,"Taintignies",50.5467427,3.3403627
7620,"Bléharies",50.5130410,3.4148305
7620,"Brunehaut",50.5417750,3.3978021
7620,"Guignies",50.5473025,3.3669917
7620,"Hollain",50.5443138,3.4273185
7620,"Jollain-Merlin",50.5391272,3.4039924
7620,"Wez-Velvain",50.5477881,3.3890330
7621,"Lesdain",50.5204844,3.3892118
7622,"Laplaigne",50.5207793,3.4469774
7623,"Rongy",50.5084038,3.3911678
7624,"Howardries",50.5060586,3.3558990
7640,"Antoing",50.5503239,3.4596501
7640,"Maubray",50.5512055,3.4999451
7640,"Péronnes-Lez-Antoing",50.5503284,3.4541886
7641,"Bruyelle",50.5573826,3.4276343
7642,"Calonne",50.5780363,3.4365062
7643,"Fontenoy",50.5677490,3.4736321
7700,"Luingne",50.7384410,3.2337149
7700,"Moeskroen",50.7459126,3.2192720
7711,"Dottenijs",50.7281602,3.3048918
7712,"Herseaux",50.7225680,3.2326156
7730,"Bailleul",50.6697693,3.3186808
7730,"Estaimbourg",50.6803312,3.3098471
7730,"Estaimpuis",50.7061525,3.2649737
7730,"Evregnies",50.7129496,3.2865695
7730,"Leers-Nord",50.6876942,3.2718413
7730,"Néchin",50.6670101,3.2690718
7730,"Saint-Léger",50.7067812,3.3183539
7740,"Pecq",50.6993740,3.3314663
7740,"Warcoing",50.7043825,3.3439836
7742,"Hérinnes-Lez-Pecq",50.7013410,3.3633472
7743,"Esquelmes",50.6656092,3.3479165
7743,"Obigies",50.6619166,3.3640454
7750,"Amougies",50.7442800,3.5068355
7750,"Anseroeul",50.7269650,3.5212662
7750,"Mont-De-L'enclus",50.7403202,3.5052669
7750,"Orroir",50.7486430,3.4794562
7750,"Russeignies",50.7446224,3.5307830
7760,"Celles",50.7121072,3.4574913
7760,"Escanaffles",50.7536795,3.4480032
7760,"Molenbaix",50.6932647,3.4299807
7760,"Popuelles",50.6624916,3.5187890
7760,"Pottes",50.7311992,3.4064337
7760,"Velaines",50.6698088,3.4866943
7780,"Komen",50.7687459,2.9997061
7780,"Komen-Waasten",50.7811468,2.9997573
7781,"Houthem",50.7867816,2.9641654
7782,"Ploegsteert",50.7265535,2.8806048
7783,"Bizet",50.7083166,2.8930068
7784,"Neerwaasten",50.7591263,2.9610169
7784,"Waasten",50.7527699,2.9488295
7800,"Ath",50.6335009,3.7882733
7800,"Lanquesaint",50.6532856,3.8065319
7801,"Irchonwelz",50.6179756,3.7590505
7802,"Ormeignies",50.5946299,3.7510985
7803,"Bouvignies",50.6467287,3.7664662
7804,"Ostiches",50.6784560,3.7590705
7804,"Rebaix",50.6604453,3.7835209
7810,"Maffle",50.6169973,3.8057979
7811,"Arbre",50.6124045,3.8165211
7812,"Houtaing",50.6405033,3.6791220
7812,"Ligne",50.6215858,3.7046301
7812,"Mainvault",50.6490683,3.7168499
7812,"Moulbaix",50.6015858,3.7157035
7812,"Villers-Notre-Dame",50.6168631,3.7361557
7812,"Villers-Saint-Amand",50.6227748,3.7289144
7822,"Ghislenghien",50.6565066,3.8774062
7822,"Isières",50.6653940,3.8176928
7822,"Meslin-L'evêque",50.6493510,3.8474277
7823,"Gibecq",50.6383168,3.8879250
7830,"Bassilly",50.6767826,3.9336848
7830,"Fouleng",50.6182079,3.9277830
7830,"Gondregnies",50.6272859,3.9119320
7830,"Graty",50.6319712,3.9960425
7830,"Hellebecq",50.6633699,3.8882654
7830,"Hoves",50.6707875,4.0356997
7830,"Silly",50.6488776,3.9235692
7830,"Thoricourt",50.6101066,3.9498259
7850,"Edingen",50.6947421,4.0418582
7850,"Lettelingen",50.6913651,4.0829937
7850,"Mark",50.6914447,4.0154000
7860,"Lessines",50.7047124,3.8348594
7861,"Papignies",50.6863766,3.8165855
7861,"Wannebecq",50.6944009,3.7997435
7862,"Ogy",50.7207024,3.7806795
7863,"Ghoy",50.7298753,3.8103491
7864,"Deux-Acren",50.7289132,3.8540312
7866,"Bois-De-Lessines",50.6968993,3.8881698
7866,"Ollignies",50.6846628,3.8591532
7870,"Bauffe",50.5699200,3.8531354
7870,"Cambron-Saint-Vincent",50.5819027,3.9170981
7870,"Lens",50.5566281,3.9005909
7870,"Lombise",50.5996813,3.9394020
7870,"Montignies-Lez-Lens",50.5642943,3.9441093
7880,"Vloesberg",50.7367000,3.7385200
7890,"Ellezelles",50.7337608,3.6799142
7890,"Lahamaide",50.6949026,3.7249790
7890,"Wodecq",50.7184846,3.7467894
7900,"Grandmetz",50.6230881,3.6310729
7900,"Leuze-En-Hainaut",50.5971918,3.6241539
7901,"Thieulain",50.6179227,3.6051759
7903,"Blicquy",50.5871723,3.6916495
7903,"Chapelle-À-Oie",50.5966376,3.6706651
7903,"Chapelle-À-Wattines",50.6121186,3.6525272
7904,"Pipaix",50.5836922,3.5787649
7904,"Tourpes",50.5710803,3.6548155
7904,"Willaupuis",50.5666962,3.6032726
7906,"Gallaix",50.6053041,3.5739204
7910,"Anvaing",50.6827667,3.5610313
7910,"Arc-Ainières",50.7021983,3.5469602
7910,"Arc-Wattripont",50.7286840,3.5480229
7910,"Cordes",50.6884582,3.5329359
7910,"Ellignies-Lez-Frasnes",50.6747400,3.5906400
7910,"Forest",50.6732879,3.5366398
7910,"Frasnes-Lez-Anvaing",50.6986439,3.5330692
7910,"Wattripont",50.7286840,3.5480229
7911,"Buissenal",50.6642045,3.6557135
7911,"Frasnes-Lez-Buissenal",50.6699339,3.6197759
7911,"Hacquegnies",50.6513567,3.5935257
7911,"Herquegies",50.6349791,3.5780843
7911,"Montroeul-Au-Bois",50.6475838,3.5721235
7911,"Moustier",50.6560229,3.6201695
7911,"Oeudeghien",50.6793101,3.7088142
7912,"Dergneau",50.7132742,3.5689855
7912,"Saint-Sauveur",50.7062467,3.5973713
7940,"Brugelette",50.5991751,3.8545291
7940,"Cambron-Casteau",50.5890218,3.8801355
7941,"Attre",50.6067064,3.8384917
7942,"Mévergnies-Lez-Lens",50.6073400,3.8525209
7943,"Gages",50.6068410,3.8905197
7950,"ChiÈvres",50.5859700,3.8060900
7950,"Grosage",50.5446900,3.7564300
7950,"Huissignies",50.5648200,3.7541000
7950,"Ladeuze",50.5644700,3.7686100
7950,"Tongre-Saint-Martin",50.5869300,3.7888400
7951,"Tongre-Notre-Dame",50.5814329,3.7755504
7970,"Beloeil",50.5317621,3.7256357
7971,"Basècles",50.5259119,3.6488934
7971,"Ramegnies",50.5440330,3.6347320
7971,"Thumaide",50.5403972,3.6304535
7971,"Wadelincourt",50.5376959,3.6533891
7972,"Aubechies",50.5724436,3.6814062
7972,"Ellignies-Saint-Anne",50.5627762,3.6769600
7972,"Quevaucamps",50.5186636,3.6801487
7973,"Grandglise",50.5053250,3.6942392
7973,"Stambruges",50.5085894,3.7172081
8000,"Brugge",51.2093488,3.2247013
8000,"Koolkerke",51.2403327,3.2481090
8020,"Hertsberge",51.1053969,3.2730671
8020,"Oostkamp",51.1545056,3.2334111
8020,"Ruddervoorde",51.0959410,3.2065193
8020,"Waardamme",51.1133317,3.2193165
8200,"Sint-Andries",51.1972024,3.1794755
8200,"Sint-Michiels",51.1858939,3.2082098
8210,"Loppem",51.1559088,3.1959225
8210,"Veldegem",51.1045154,3.1595129
8210,"Zedelgem",51.1423355,3.1369128
8211,"Aartrijke",51.1191688,3.0900794
8300,"Knokke",51.3467441,3.2894423
8300,"Knokke-Heist",51.3467441,3.2894423
8300,"Westkapelle",51.3157028,3.3028853
8301,"Heist-Aan-Zee",51.3403638,3.2400417
8301,"Ramskapelle",51.3136364,3.2516251
8310,"Assebroek",51.2020234,3.2550607
8310,"Sint-Kruis",51.2142970,3.2512976
8340,"Damme",51.2513634,3.2813763
8340,"Hoeke",51.2916219,3.3367290
8340,"Lapscheure",51.2776457,3.3568337
8340,"Moerkerke",51.2430573,3.3400710
8340,"Oostkerke",51.2785542,3.2938857
8340,"Sijsele",51.2015613,3.3212461
8370,"Blankenberge",51.3123743,3.1327685
8370,"Uitkerke",51.3033000,3.1429000
8377,"Houtave",51.2359799,3.1104678
8377,"Meetkerke",51.2350824,3.1514099
8377,"Nieuwmunster",51.2737780,3.0986683
8377,"Zuienkerke",51.2649386,3.1539330
8380,"Dudzele",51.2736603,3.2247366
8380,"Lissewege",51.2941105,3.1923223
8380,"Zeebrugge",51.3189468,3.2068507
8400,"Oostende",51.2154300,2.9286560
8400,"Stene",51.2026843,2.9146880
8400,"Zandvoorde",51.2012273,2.9750305
8420,"De Haan",51.2500373,3.0380713
8420,"Klemskerke",51.2433832,3.0229766
8420,"Wenduine",51.2976457,3.0830791
8421,"Vlissegem",51.2535272,3.0571336
8430,"Middelkerke",51.1798869,2.8060231
8431,"Wilskerke",51.1796383,2.8259430
8432,"Leffinge",51.1756700,2.8771100
8433,"Mannekensvere",51.1259337,2.8181826
8433,"Schore",51.1117368,2.8392235
8433,"Sint-Pieters-Kapelle",51.1262331,2.8759234
8433,"Slijpe",51.1553124,2.8472073
8434,"Lombardsijde",51.1478198,2.7565537
8434,"Westende",51.1595084,2.7690346
8450,"Bredene",51.2345015,2.9728359
8460,"Ettelgem",51.1795852,3.0302382
8460,"Oudenburg",51.1836837,3.0068564
8460,"Roksem",51.1674713,3.0276368
8460,"Westkerke",51.1644881,3.0154519
8470,"Gistel",51.1562662,2.9676432
8470,"Moere",51.1225897,2.9559016
8470,"Snaaskerke",51.1775854,2.9390820
8470,"Zevekote",51.1375112,2.9200416
8480,"Bekegem",51.1597289,3.0453899
8480,"Eernegem",51.1295248,3.0274313
8480,"Ichtegem",51.0928542,3.0106022
8490,"Jabbeke",51.1829867,3.0948244
8490,"Snellegem",51.1690484,3.1230877
8490,"Stalhille",51.2140395,3.0721578
8490,"Varsenare",51.1891579,3.1421014
8490,"Zerkegem",51.1665002,3.0693013
8500,"Kortrijk",50.8194894,3.2577076
8501,"Bissegem",50.8241103,3.2280954
8501,"Heule",50.8431958,3.2347200
8510,"Bellegem",50.7766030,3.2784441
8510,"Kooigem",50.7396942,3.3313161
8510,"Marke",50.8070105,3.2335928
8510,"Rollegem",50.7659873,3.2634359
8511,"Aalbeke",50.7784023,3.2299377
8520,"Kuurne",50.8539700,3.2870000
8530,"Harelbeke",50.8455798,3.3121073
8531,"Bavikhove",50.8754986,3.3112054
8531,"Hulste",50.8804452,3.2982426
8540,"Deerlijk",50.8537400,3.3533500
8550,"Zwevegem",50.8080392,3.3505258
8551,"Heestert",50.7826441,3.4103660
8552,"Moen",50.7699733,3.3974267
8553,"Otegem",50.8081889,3.4239803
8554,"Sint-Denijs",50.7530651,3.3653137
8560,"Gullegem",50.8447689,3.1989718
8560,"Moorsele",50.8405959,3.1646335
8560,"Wevelgem",50.8089296,3.1836033
8570,"Anzegem",50.8335097,3.4789005
8570,"Gijzelbrechtegem",50.8285391,3.5058127
8570,"Ingooigem",50.8173718,3.4342331
8570,"Vichte",50.8378727,3.4030323
8572,"Kaster",50.8131679,3.4938322
8573,"Tiegem",50.8086089,3.4752664
8580,"Avelgem",50.7790895,3.4511795
8581,"Kerkhove",50.7983592,3.5006455
8581,"Waarmaarde",50.7908774,3.4854501
8582,"Outrijve",50.7560066,3.4292885
8583,"Bossuit",50.7481174,3.4072881
8587,"Helkijn",50.7321848,3.3811463
8587,"Spiere",50.7184934,3.3553700
8587,"Spiere-Helkijn",50.7297543,3.3595085
8600,"Beerst",51.0589145,2.8868758
8600,"Diksmuide",51.0333310,2.8658393
8600,"Driekapellen",50.7063183,3.9862194
8600,"Esen",51.0294434,2.9021449
8600,"Kaaskerke",51.0357927,2.8364554
8600,"Keiem",51.0807421,2.8821755
8600,"Lampernisse",51.0325467,2.7685298
8600,"Leke",51.1004367,2.8904342
8600,"Nieuwkapelle",50.9994330,2.7999063
8600,"Oostkerke",51.0464297,2.7972622
8600,"Oudekapelle",51.0135407,2.8080138
8600,"Pervijze",51.0733467,2.7941219
8600,"Sint-Jacobs-Kapelle",51.0164049,2.8338522
8600,"Stuivekenskerke",51.0767668,2.8250520
8600,"Vladslo",51.0464012,2.9162710
8600,"Woumen",50.9983803,2.8697759
8610,"Handzame",51.0256710,3.0031283
8610,"Kortemark",51.0284499,3.0441091
8610,"Werken",51.0291439,2.9646703
8610,"Zarren",51.0184331,2.9589059
8620,"Nieuwpoort",51.1285059,2.7480064
8620,"Ramskapelle",51.1095483,2.7620106
8620,"Sint-Joris",51.1291298,2.7723581
8630,"Avekapelle",51.0663475,2.7329511
8630,"Booitshoeke",51.0869455,2.7332623
8630,"Bulskamp",51.0413505,2.6500228
8630,"De Moeren",51.0417090,2.6005840
8630,"Eggewaartskapelle",51.0496759,2.7218286
8630,"Houtem",51.0104746,2.6096642
8630,"Steenkerke",51.0574271,2.6892647
8630,"Veurne",51.0731945,2.6680059
8630,"Vinkem",51.0161527,2.6628519
8630,"Wulveringem",51.0145170,2.6544608
8630,"Zoutenaaie",51.0485937,2.7507500
8640,"Oostvleteren",50.9318028,2.7367963
8640,"Vleteren",50.9296908,2.7327547
8640,"Westvleteren",50.9276053,2.7169070
8640,"Woesten",50.9006632,2.7891271
8647,"Lo",50.9806703,2.7489727
8647,"Lo-Reninge",50.9688486,2.7818969
8647,"Noordschote",50.9546429,2.8104660
8647,"Pollinkhove",50.9710805,2.7322734
8647,"Reninge",50.9733400,2.7715700
8650,"Houthulst",50.9773885,2.9457764
8650,"Klerken",50.9980304,2.9041727
8650,"Merkem",50.9528136,2.8523982
8660,"Adinkerke",51.0751267,2.6034114
8660,"De Panne",51.0962794,2.5905629
8670,"Koksijde",51.1053908,2.6500795
8670,"Oostduinkerke",51.1158173,2.6824907
8670,"Wulpen",51.1007563,2.6991737
8680,"Bovekerke",51.0544659,2.9627034
8680,"Koekelare",51.0929033,2.9795835
8680,"Zande",51.1200517,2.9222322
8690,"Alveringem",51.0122085,2.7130822
8690,"Hoogstade",50.9795594,2.6916569
8690,"Oeren",51.0230442,2.7052385
8690,"Sint-Rijkers",50.9915951,2.6878140
8691,"Beveren-Aan-De-Ijzer",50.9392045,2.6397658
8691,"Gijverinkhove",50.9761349,2.6725749
8691,"Izenberge",50.9942337,2.6547262
8691,"Leisele",50.9855486,2.6234329
8691,"Stavele",50.9385520,2.6699315
8700,"Aarsele",50.9969343,3.4224989
8700,"Kanegem",51.0134353,3.4033279
8700,"Schuiferskapelle",51.0328997,3.3338300
8700,"Tielt",51.0001519,3.3263821
8710,"Ooigem",50.8933706,3.3365046
8710,"Sint-Baafs-Vijve",50.9103986,3.3907682
8710,"Wielsbeke",50.9099543,3.3724687
8720,"Dentergem",50.9636458,3.4186283
8720,"Markegem",50.9458591,3.4026412
8720,"Oeselgem",50.9350995,3.4319099
8720,"Wakken",50.9306218,3.3979722
8730,"Beernem",51.1424812,3.3409529
8730,"Oedelem",51.1685563,3.3397246
8730,"Sint-Joris",51.1275828,3.3683708
8740,"Egem",51.0148444,3.2590301
8740,"Pittem",50.9942681,3.2666639
8750,"Wingene",51.0586500,3.2748000
8750,"Zwevezele",51.0360900,3.2104700
8755,"Ruiselede",51.0413098,3.3970513
8760,"Meulebeke",50.9506000,3.2863700
8770,"Ingelmunster",50.9232500,3.2628400
8780,"Oostrozebeke",50.9202012,3.3346008
8790,"Waregem",50.8869521,3.4231317
8791,"Beveren",50.8739810,3.3465118
8792,"Desselgem",50.8868997,3.3494059
8793,"Sint-Eloois-Vijve",50.9034885,3.4098713
8800,"Beveren",50.9685498,3.1443098
8800,"Oekene",50.9202542,3.1609844
8800,"Roeselare",50.9499310,3.1294450
8800,"Rumbeke",50.9332448,3.1560374
8810,"Lichtervelde",51.0277074,3.1439095
8820,"Torhout",51.0649800,3.1015700
8830,"Gits",50.9970116,3.0999918
8830,"Hooglede",50.9785141,3.0814646
8840,"Oostnieuwkerke",50.9423778,3.0642828
8840,"Staden",50.9745786,3.0144880
8840,"Westrozebeke",50.9318970,3.0122830
8850,"Ardooie",50.9790650,3.1988027
8851,"Koolskamp",51.0019392,3.2117867
8860,"Lendelede",50.8862994,3.2381931
8870,"Emelgem",50.9271506,3.2178679
8870,"Izegem",50.9180785,3.2132192
8870,"Kachtem",50.9318824,3.1924033
8880,"Ledegem",50.8549568,3.1274573
8880,"Rollegem-Kapelle",50.8682853,3.1449509
8880,"Sint-Eloois-Winkel",50.8762769,3.1823566
8890,"Dadizele",50.8516407,3.0944555
8890,"Moorslede",50.8911470,3.0632369
8900,"Brielen",50.8673860,2.8501053
8900,"Dikkebus",50.8205936,2.8318862
8900,"Ieper",50.8492265,2.8779465
8900,"Sint-Jan",50.8669140,2.9021437
8902,"Hollebeke",50.8053761,2.9371958
8902,"Voormezele",50.8165607,2.8758050
8902,"Zillebeke",50.8345035,2.9225399
8904,"Boezinge",50.8967457,2.8547932
8904,"Zuidschote",50.9130344,2.8295441
8906,"Elverdinge",50.8858801,2.8175080
3220,"Holsbeek",50.9248584,4.7861502
3220,"Kortrijk-Dutsel",50.9266825,4.8055097
3220,"Sint-Pieters-Rode",50.9323900,4.8205700
3221,"Nieuwrode",50.9495500,4.8333900
8906,"Elverdinge",50.8858801,2.8175080
8908,"Vlamertinge",50.8536639,2.8243473
8920,"Bikschote",50.9258047,2.8646858
8920,"Langemark",50.9135965,2.9200050
8920,"Langemark-Poelkapelle",50.9135674,2.9200127
8920,"Poelkapelle",50.9176532,2.9565978
8930,"Lauwe",50.7946478,3.1849946
8930,"Menen",50.7961693,3.1214422
8930,"Rekkem",50.7828070,3.1641132
8940,"Geluwe",50.8099859,3.0767048
8940,"Wervik",50.7841386,3.0448969
8950,"Heuvelland",50.7335060,2.8250977
8950,"Nieuwkerke",50.7460655,2.8252871
8951,"Dranouter",50.7659194,2.7829724
8952,"Wulvergem",50.7601685,2.8524263
8953,"Wijtschate",50.7858578,2.8831131
8954,"Westouter",50.7971484,2.7464372
8956,"Kemmel",50.7832795,2.8286179
8957,"Mesen",50.7638555,2.8976699
8958,"Loker",50.7817391,2.7721461
8970,"Poperinge",50.8452065,2.7211761
8970,"Reningelst",50.8170545,2.7634047
8972,"Krombeke",50.9148551,2.6885943
8972,"Proven",50.8904872,2.6560368
8972,"Roesbrugge-Haringe",50.9188790,2.6247955
8978,"Watou",50.8588172,2.6206457
8980,"Beselare",50.8478800,3.0246750
8980,"Geluveld",50.8338478,2.9939124
8980,"Passendale",50.9002575,3.0207328
8980,"Zandvoorde",50.8123365,2.9816989
8980,"Zonnebeke",50.8727334,2.9874714
9000,"Gent",51.0678307,3.7290914
9030,"Mariakerke",51.0736204,3.6806420
9031,"Drongen",51.0504800,3.6633000
9032,"Wondelgem",51.0905009,3.7160657
9040,"Sint-Amandsberg",51.0593304,3.7509905
9041,"Oostakker",51.0997130,3.7642304
9042,"Desteldonk",51.1220868,3.7825691
9042,"Mendonk",51.1447934,3.8193015
9042,"Sint-Kruis-Winkel",51.1558401,3.8158001
9050,"Gentbrugge",51.0342951,3.7640148
9050,"Ledeberg",51.0371743,3.7412237
9051,"Afsnee",51.0305603,3.6661568
9051,"Sint-Denijs-Westrem",51.0200854,3.6695793
9052,"Zwijnaarde",50.9998062,3.7106183
9060,"Zelzate",51.1987114,3.8119772
9070,"Destelbergen",51.0609335,3.7977646
9070,"Heusden",51.0327975,3.8036959
9080,"Beervelde",51.0800983,3.8805757
9080,"Lochristi",51.0974848,3.8378336
9080,"Zaffelare",51.1324891,3.8618077
9080,"Zeveneken",51.1074665,3.8988663
9090,"Gontrode",50.9834948,3.7972911
9090,"Melle",51.0036716,3.8003144
9100,"Nieuwkerken-Waas",51.1935108,4.1775401
9100,"Sint-Niklaas",51.1559033,4.1544255
9111,"Belsele",51.1428369,4.0861828
9112,"Sinaai-Waas",51.1563307,4.0444238
9120,"Beveren-Waas",51.2175194,4.2520903
9120,"Haasdonk",51.1810333,4.2378789
9120,"Kallo",51.2526476,4.2786812
9120,"Melsele",51.2224882,4.2822314
9120,"Vrasene",51.2193961,4.1944794
9130,"Doel",51.3105976,4.2649749
9130,"Kallo",51.2531035,4.2567081
9130,"Kieldrecht",51.2894202,4.1755238
9130,"Verrebroek",51.2555891,4.1888455
9140,"Elversele",51.1145439,4.1433446
9140,"Steendorp",51.1258102,4.2706342
9140,"Temse",51.1295500,4.2127500
9140,"Tielrode",51.1147810,4.1639796
9150,"Bazel",51.1475120,4.2983585
9150,"Kruibeke",51.1706378,4.3123069
9150,"Rupelmonde",51.1274074,4.2903448
9160,"Daknam",51.1278368,3.9873540
9160,"Eksaarde",51.1471563,3.9586263
9160,"Lokeren",51.1024238,3.9940517
9170,"De Klinge",51.2562060,4.0900407
9170,"Meerdonk",51.2607213,4.1459930
9170,"Sint-Gillis-Waas",51.2199257,4.1242507
9170,"Sint-Pauwels",51.1933030,4.0977458
9180,"Moerbeke-Waas",51.1734692,3.9342837
9185,"Wachtebeke",51.1709500,3.8605500
9190,"Kemzeke",51.2062441,4.0756996
9190,"Stekene",51.2063826,4.0408830
9200,"Appels",51.0293011,4.0541409
9200,"Baasrode",51.0378102,4.1577249
9200,"Dendermonde",51.0254867,4.1019931
9200,"Grembergen",51.0550925,4.1056631
9200,"Mespelare",50.9960845,4.0691846
9200,"Oudegem",51.0091316,4.0612485
9200,"Schoonaarde",51.0035338,4.0151259
9200,"Sint-Gillis-Dendermonde",51.0215600,4.1080140
9220,"Hamme",51.0902010,4.1402689
9220,"Moerzeke",51.0666518,4.1557302
9230,"Massemen",50.9808891,3.8734909
9230,"Westrem",50.9697570,3.8613947
9230,"Wetteren",51.0028673,3.8896461
9240,"Zele",51.0700632,4.0402907
9250,"Waasmunster",51.1094708,4.0844665
9255,"Buggenhout",51.0136735,4.2010994
9255,"Opdorp",51.0280600,4.2191800
9260,"Schellebelle",51.0115409,3.9288305
9260,"Serskamp",50.9908200,3.9221247
9260,"Wichelen",51.0048213,3.9735809
9270,"Kalken",51.0383253,3.9183591
9270,"Laarne",51.0304277,3.8535642
9280,"Denderbelle",51.0009562,4.0907494
9280,"Lebbeke",51.0005702,4.1292201
9280,"Wieze",50.9786176,4.0836695
9290,"Berlare",51.0174273,4.0058218
9290,"Overmere",51.0465707,3.9466434
9290,"Uitbergen",51.0225480,3.9541747
9300,"Aalst",50.9377930,4.0409133
9308,"Gijzegem",50.9837657,4.0510580
9308,"Hofstade",50.9608451,4.0317903
9310,"Baardegem",50.9549555,4.1415770
9310,"Herdersem",50.9700983,4.0659206
9310,"Meldert",50.9343250,4.1354329
9310,"Moorsel",50.9478217,4.0983842
9320,"Erembodegem",50.9206095,4.0608920
9320,"Nieuwerkerken",50.9234243,4.0046831
9340,"Impe",50.9604418,3.9498849
9340,"Lede",50.9658713,3.9773269
9340,"Oordegem",50.9565245,3.9028634
9340,"Smetlede",50.9660082,3.9277109
9340,"Wanzele",50.9741071,3.9558401
9400,"Appelterre-Eichem",50.8187951,3.9669736
9400,"Denderwindeke",50.7980879,4.0247359
9400,"Lieferinge",50.7919279,4.0525752
9400,"Nederhasselt",50.8468981,3.9751089
9400,"Ninove",50.8336435,4.0188030
9400,"Okegem",50.8554922,4.0555127
9400,"Voorde",50.8246285,3.9448617
9401,"Pollare",50.8172312,4.0068855
9402,"Meerbeke",50.8238384,4.0407347
9403,"Neigem",50.8033904,4.0618153
9404,"Aspelare",50.8433311,3.9574710
9406,"Outer",50.8416281,3.9993364
9420,"Aaigem",50.8891580,3.9372245
9420,"Bambrugge",50.9218777,3.9287832
9420,"Burst",50.9134028,3.9202801
9420,"Erondegem",50.9408215,3.9554259
9420,"Erpe",50.9338285,3.9768861
9420,"Erpe-Mere",50.9141370,3.9568328
9420,"Mere",50.9224188,3.9680530
9420,"Ottergem",50.9338291,3.9446055
9420,"Vlekkem",50.9364320,3.9316060
9450,"Denderhoutem",50.8709652,4.0184815
9450,"Haaltert",50.9024400,4.0056515
9450,"Heldergem",50.8749786,3.9606280
9451,"Kerksken",50.8902903,3.9920928
9470,"Denderleeuw",50.8841490,4.0707683
9472,"Iddergem",50.8745041,4.0487529
9473,"Welle",50.8990369,4.0555870
9500,"Geraardsbergen",50.7705978,3.8871336
9500,"Goeferdinge",50.7673697,3.8414944
9500,"Moerbeke",50.7524370,3.9179326
9500,"Nederboelare",50.7707473,3.8630757
9500,"Onkerzele",50.7854778,3.9164649
9500,"Ophasselt",50.8211821,3.8913282
9500,"Overboelare",50.7622737,3.8630955
9500,"Viane",50.7435153,3.9227668
9500,"Zarlardinge",50.7621167,3.8286395
9506,"Grimminge",50.7938805,3.9441263
9506,"Idegem",50.7999931,3.9267805
9506,"Nieuwenhove",50.7875782,3.9866164
9506,"Schendelbeke",50.7957523,3.8948669
