"postal","name","lat","lng","province"
1000,"Brussel",50.8427501,4.3515499,"Vlaams-Brabant"
1020,"Laken",50.8842180,4.3580002,"Vlaams-Brabant"
1030,"Schaarbeek",50.8674400,4.3772700,"Vlaams-Brabant"
1040,"Etterbeek",50.8325900,4.3889900,"Vlaams-Brabant"
1050,"Elsene",50.8270563,4.3723080,"Vlaams-Brabant"
1060,"Sint-Gillis",50.8301436,4.3402184,"Vlaams-Brabant"
1070,"Anderlecht",50.8365808,4.3081870,"Vlaams-Brabant"
1080,"Sint-Jans-Molenbeek",50.8522009,4.3303277,"Vlaams-Brabant"
1081,"Koekelberg",50.8633811,4.3303380,"Vlaams-Brabant"
1082,"Sint-Agatha-Berchem",50.8657821,4.2925975,"Vlaams-Brabant"
1083,"Ganshoren",50.8711300,4.3025300,"Vlaams-Brabant"
1090,"Jette",50.8808582,4.3227894,"Vlaams-Brabant"
1120,"Neder-Over-Heembeek",50.8962200,4.3718800,"Vlaams-Brabant"
1130,"Haren",50.8922905,4.4176727,"Vlaams-Brabant"
1140,"Evere",50.8739353,4.4009421,"Vlaams-Brabant"
1150,"Sint-Pieters-Woluwe",50.8299809,4.4335038,"Vlaams-Brabant"
1160,"Oudergem",50.8164300,4.4264900,"Vlaams-Brabant"
1170,"Watermaal-Bosvoorde",50.7881573,4.4180065,"Vlaams-Brabant"
1180,"Ukkel",50.8024100,4.3406700,"Vlaams-Brabant"
1190,"Vorst",50.8174500,4.3267500,"Vlaams-Brabant"
1200,"Sint-Lambrechts-Woluwe",50.8489094,4.4320883,"Vlaams-Brabant"
1210,"Sint-Joost-Ten-Noode",50.8537715,4.3704657,"Vlaams-Brabant"
1300,"Limal",50.6934506,4.5732954,"Waals-Brabant"
1300,"Wavre",50.7158951,4.6128257,"Waals-Brabant"
1301,"Bierges",50.7113795,4.5871684,"Waals-Brabant"
1310,"La Hulpe",50.7309955,4.4856707,"Waals-Brabant"
1315,"Glimes",50.6796000,4.8377400,"Waals-Brabant"
1315,"Incourt",50.6918800,4.7966000,"Waals-Brabant"
1315,"Opprebais",50.6794600,4.7981900,"Waals-Brabant"
1315,"Piètrebais",50.7279600,4.7638100,"Waals-Brabant"
1315,"Roux-Miroir",50.7081100,4.7851300,"Waals-Brabant"
1320,"Beauvechain",50.7586100,4.7683330,"Waals-Brabant"
1320,"Hamme-Mille",50.7795300,4.7169400,"Waals-Brabant"
1320,"L'ecluse",50.7718400,4.8318300,"Waals-Brabant"
1320,"Nodebais",50.7731900,4.7355500,"Waals-Brabant"
1320,"Tourinnes-La-Grosse",50.7828100,4.7444500,"Waals-Brabant"
1325,"Bonlez",50.7019300,4.6894800,"Waals-Brabant"
1325,"Chaumont-Gistoux",50.6768700,4.7194300,"Waals-Brabant"
1325,"Corroy-Le-Grand",50.6620600,4.6745800,"Waals-Brabant"
1325,"Dion-Valmont",50.6974838,4.6588254,"Waals-Brabant"
1325,"Longueville",50.7023100,4.7401400,"Waals-Brabant"
1330,"Rixensart",50.7109736,4.5306325,"Waals-Brabant"
1331,"Rosières",50.7301500,4.5444100,"Waals-Brabant"
1332,"Genval",50.7211000,4.4938800,"Waals-Brabant"
1340,"Ottignies",50.6654650,4.5669046,"Waals-Brabant"
1340,"Ottignies-Louvain-La-Neuve",50.6672105,4.5859684,"Waals-Brabant"
1341,"Céroux-Mousty",50.6603690,4.5204882,"Waals-Brabant"
1342,"Limelette",50.6703046,4.5659574,"Waals-Brabant"
1348,"Louvain-La-Neuve",50.6680810,4.6118324,"Waals-Brabant"
1350,"Enines",50.6936600,4.9265500,"Waals-Brabant"
1350,"Folx-Les-Caves",50.6604200,4.9376000,"Waals-Brabant"
1350,"Jandrain-Jandrenouille",50.6736800,4.9796900,"Waals-Brabant"
1350,"Jauche",50.6829800,4.9547000,"Waals-Brabant"
1350,"Marilles",50.7071600,4.9527400,"Waals-Brabant"
1350,"Noduwez",50.7296034,4.9638247,"Waals-Brabant"
1350,"Orp-Jauche",50.6829800,4.9547000,"Waals-Brabant"
1350,"Orp-Le-Grand",50.7038000,4.9907420,"Waals-Brabant"
1357,"HÉlÉcine",50.7497791,4.9829359,"Waals-Brabant"
1357,"Linsmeau",50.7335692,5.0029743,"Waals-Brabant"
1357,"Neerheylissem",50.7551532,4.9872002,"Waals-Brabant"
1357,"Opheylissem",50.7477492,4.9774665,"Waals-Brabant"
1360,"Malèves-Sainte-Marie-Wastines",50.6550300,4.7794300,"Waals-Brabant"
1360,"Orbais",50.6375700,4.7632300,"Waals-Brabant"
1360,"Perwez",50.6239500,4.8150300,"Waals-Brabant"
1360,"Thorembais-Les-Béguines",50.6579900,4.8172800,"Waals-Brabant"
1360,"Thorembais-Saint-Trond",50.6346500,4.7864600,"Waals-Brabant"
1367,"Autre-Eglise",50.6692600,4.9037500,"Waals-Brabant"
1367,"Bomal",50.6711000,4.8733200,"Waals-Brabant"
1367,"Geest-Gérompont-Petit-Rosière",50.6408800,4.8574400,"Waals-Brabant"
1367,"Gérompont",50.6484700,4.8816900,"Waals-Brabant"
1367,"Grand-Rosière-Hottomont",50.6319864,4.8661554,"Waals-Brabant"
1367,"Huppaye",50.6934700,4.8938300,"Waals-Brabant"
1367,"Mont-Saint-André",50.6552400,4.8645100,"Waals-Brabant"
1367,"Ramillies",50.6367900,4.9145100,"Waals-Brabant"
1370,"Dongelberg",50.7033800,4.8200700,"Waals-Brabant"
1370,"Jauchelette",50.6863100,4.8435800,"Waals-Brabant"
1370,"Jodoigne",50.7233600,4.8711500,"Waals-Brabant"
1370,"Jodoigne-Souveraine",50.7089800,4.8367800,"Waals-Brabant"
1370,"Lathuy",50.7236600,4.8261300,"Waals-Brabant"
1370,"Mélin",50.7397900,4.8285200,"Waals-Brabant"
1370,"Piétrain",50.7247600,4.9207000,"Waals-Brabant"
1370,"Saint-Jean-Geest",50.7396400,4.8954800,"Waals-Brabant"
1370,"Saint-Remy-Geest",50.7463600,4.8601900,"Waals-Brabant"
1370,"Zétrud-Lumay",50.7579200,4.8859000,"Waals-Brabant"
1380,"Couture-Saint-Germain",50.6750200,4.4725200,"Waals-Brabant"
1380,"Lasne",50.6873600,4.4813500,"Waals-Brabant"
1380,"Lasne-Chapelle-Saint-Lambert",50.6918500,4.5021300,"Waals-Brabant"
1380,"Maransart",50.6595300,4.4674500,"Waals-Brabant"
1380,"Ohain",50.6990700,4.4691900,"Waals-Brabant"
1380,"Plancenoit",50.6619600,4.4286300,"Waals-Brabant"
1390,"Archennes",50.7524768,4.6698680,"Waals-Brabant"
1390,"Biez",50.7267436,4.7019841,"Waals-Brabant"
1390,"Bossut-Gottechain",50.7613181,4.6941056,"Waals-Brabant"
1390,"Grez-Doiceau",50.7385816,4.6972809,"Waals-Brabant"
1390,"Nethen",50.7837825,4.6741168,"Waals-Brabant"
1400,"Monstreux",50.5980300,4.2888400,"Waals-Brabant"
1400,"Nivelles",50.5886574,4.3308649,"Waals-Brabant"
1401,"Baulers",50.6134100,4.3538700,"Waals-Brabant"
1402,"Thines",50.5973400,4.3684600,"Waals-Brabant"
1404,"Bornival",50.6011653,4.2762763,"Waals-Brabant"
1410,"Waterloo",50.7146900,4.3991000,"Waals-Brabant"
1420,"Braine-L'alleud",50.6969022,4.3538379,"Waals-Brabant"
1421,"Ophain-Bois-Seigneur-Isaac",50.6664200,4.3488600,"Waals-Brabant"
1428,"Lillois-Witterzée",50.6456700,4.3671200,"Waals-Brabant"
1430,"Bierghes",50.6956998,4.1195104,"Waals-Brabant"
1430,"Quenast",50.6729162,4.1573320,"Waals-Brabant"
1430,"Rebecq",50.6658280,4.1326285,"Waals-Brabant"
1430,"Rebecq-Rognon",50.6659293,4.1326563,"Waals-Brabant"
1435,"Corbais",50.6462709,4.6553809,"Waals-Brabant"
1435,"Hévillers",50.6215801,4.6154602,"Waals-Brabant"
1435,"Mont-Saint-Guibert",50.6347043,4.6106474,"Waals-Brabant"
1440,"Braine-Le-ChÂteau",50.6802986,4.2689347,"Waals-Brabant"
1440,"Wauthier-Braine",50.6812100,4.2980600,"Waals-Brabant"
1450,"Chastre",50.6081300,4.6356900,"Waals-Brabant"
1450,"Chastre-Villeroux-Blanmont",50.6000000,4.6170000,"Waals-Brabant"
1450,"Cortil-Noirmont",50.5813600,4.6428400,"Waals-Brabant"
1450,"Gentinnes",50.5816550,4.6012217,"Waals-Brabant"
1450,"Saint-Géry",50.5804909,4.6124318,"Waals-Brabant"
1457,"Nil-Saint-Vincent-Saint-Martin",50.6421400,4.6798200,"Waals-Brabant"
1457,"Tourinnes-Saint-Lambert",50.6393200,4.7238900,"Waals-Brabant"
1457,"Walhain",50.6165400,4.6954500,"Waals-Brabant"
1457,"Walhain-Saint-Paul",50.6327770,4.7025798,"Waals-Brabant"
1460,"Ittre",50.6326887,4.2632352,"Waals-Brabant"
1460,"Virginal-Samme",50.6398300,4.2058700,"Waals-Brabant"
1461,"Haut-Ittre",50.6535700,4.2982500,"Waals-Brabant"
1470,"Baisy-Thy",50.5969876,4.4760976,"Waals-Brabant"
1470,"Bousval",50.6149444,4.5051441,"Waals-Brabant"
1470,"Genappe",50.6108278,4.4503759,"Waals-Brabant"
1471,"Loupoigne",50.5978099,4.4445799,"Waals-Brabant"
1472,"Vieux-Genappe",50.6082918,4.4405969,"Waals-Brabant"
1473,"Glabais",50.6302595,4.4532789,"Waals-Brabant"
1474,"Ways",50.6104429,4.4644969,"Waals-Brabant"
1476,"Houtain-Le-Val",50.5829629,4.4113773,"Waals-Brabant"
1480,"Clabecq",50.6921200,4.2216300,"Waals-Brabant"
1480,"Oisquercq",50.6698900,4.2198500,"Waals-Brabant"
1480,"Saintes",50.7061500,4.1581700,"Waals-Brabant"
1480,"Tubize",50.6905400,4.2026000,"Waals-Brabant"
1490,"Court-Saint-Etienne",50.6422504,4.5680813,"Waals-Brabant"
1495,"Marbais",50.5463818,4.5351225,"Waals-Brabant"
1495,"Mellery",50.5816873,4.5688539,"Waals-Brabant"
1495,"Sart-Dames-Avelines",50.5685048,4.4917395,"Waals-Brabant"
1495,"Tilly",50.5614355,4.5490482,"Waals-Brabant"
1495,"Villers-La-Ville",50.5791942,4.5345409,"Waals-Brabant"
1500,"Halle",50.7324848,4.2349129,"Vlaams-Brabant"
1501,"Buizingen",50.7414190,4.2500475,"Vlaams-Brabant"
1502,"Lembeek",50.7140616,4.2200436,"Vlaams-Brabant"
1540,"Herfelingen",50.7477711,4.0998655,"Vlaams-Brabant"
1540,"Herne",50.7233164,4.0536565,"Vlaams-Brabant"
1541,"Sint-Pieters-Kapelle",50.7070524,3.9899741,"Vlaams-Brabant"
1547,"Bever",50.7169522,3.9406874,"Vlaams-Brabant"
1560,"Hoeilaart",50.7674863,4.4740458,"Vlaams-Brabant"
1570,"Galmaarden",50.7529396,3.9709478,"Vlaams-Brabant"
1570,"Tollembeek",50.7410978,4.0067750,"Vlaams-Brabant"
1570,"Vollezele",50.7607201,4.0252744,"Vlaams-Brabant"
1600,"Oudenaken",50.7806800,4.1993800,"Vlaams-Brabant"
1600,"Sint-Laureins-Berchem",50.7868100,4.1993800,"Vlaams-Brabant"
1600,"Sint-Pieters-Leeuw",50.7842441,4.2427430,"Vlaams-Brabant"
1601,"Ruisbroek",50.7903500,4.2986200,"Vlaams-Brabant"
1602,"Vlezenbeek",50.8078500,4.2321300,"Vlaams-Brabant"
1620,"Drogenbos",50.7875382,4.3164506,"Vlaams-Brabant"
1630,"Linkebeek",50.7660264,4.3456087,"Vlaams-Brabant"
1640,"Sint-Genesius-Rode",50.7459400,4.3575300,"Vlaams-Brabant"
1650,"Beersel",50.7686913,4.3120069,"Vlaams-Brabant"
1651,"Lot",50.7677800,4.2770700,"Vlaams-Brabant"
1652,"Alsemberg",50.7416300,4.3361300,"Vlaams-Brabant"
1653,"Dworp",50.7294900,4.3010900,"Vlaams-Brabant"
1654,"Huizingen",50.7465700,4.2736900,"Vlaams-Brabant"
1670,"Bogaarden",50.7400000,4.1363200,"Vlaams-Brabant"
1670,"Heikruis",50.7350400,4.1121100,"Vlaams-Brabant"
1670,"Pepingen",50.7360287,4.1360863,"Vlaams-Brabant"
1671,"Elingen",50.7792600,4.1711900,"Vlaams-Brabant"
1673,"Beert",50.7410300,4.1818400,"Vlaams-Brabant"
1674,"Bellingen",50.7408000,4.1539900,"Vlaams-Brabant"
1700,"Dilbeek",50.8464512,4.2620632,"Vlaams-Brabant"
1700,"Sint-Martens-Bodegem",50.8614672,4.2128916,"Vlaams-Brabant"
1700,"Sint-Ulriks-Kapelle",50.8790042,4.2182047,"Vlaams-Brabant"
1701,"Itterbeek",50.8381387,4.2500689,"Vlaams-Brabant"
1702,"Groot-Bijgaarden",50.8719066,4.2500012,"Vlaams-Brabant"
1703,"Schepdaal",50.8383485,4.1958272,"Vlaams-Brabant"
1730,"Asse",50.9054755,4.2048959,"Vlaams-Brabant"
1730,"Bekkerzeel",50.8852300,4.2380300,"Vlaams-Brabant"
1730,"Kobbegem",50.9086200,4.2510400,"Vlaams-Brabant"
1730,"Mollem",50.9313000,4.2263600,"Vlaams-Brabant"
1731,"Relegem",50.8990800,4.2770200,"Vlaams-Brabant"
1731,"Zellik",50.8844900,4.2740100,"Vlaams-Brabant"
1733,"Highco Data",50.8985334,4.2185564,"Vlaams-Brabant"
1740,"Ternat",50.8698353,4.1808317,"Vlaams-Brabant"
1741,"Wambeek",50.8532484,4.1628356,"Vlaams-Brabant"
1742,"Sint-Katherina-Lombeek",50.8732586,4.1559883,"Vlaams-Brabant"
1745,"Mazenzele",50.9427890,4.1711583,"Vlaams-Brabant"
1745,"Opwijk",50.9715880,4.1869110,"Vlaams-Brabant"
1750,"Gaasbeek",50.7998700,4.1889300,"Vlaams-Brabant"
1750,"Lennik",50.8086929,4.1614340,"Vlaams-Brabant"
1750,"Sint-Kwintens-Lennik",50.8042200,4.1548100,"Vlaams-Brabant"
1750,"Sint-Martens-Lennik",50.8127052,4.1686333,"Vlaams-Brabant"
1755,"Gooik",50.7952811,4.1180489,"Vlaams-Brabant"
1755,"Kester",50.7642800,4.1193500,"Vlaams-Brabant"
1755,"Leerbeek",50.7778700,4.1194300,"Vlaams-Brabant"
1755,"Oetingen",50.7734700,4.0631200,"Vlaams-Brabant"
1760,"Onze-Lieve-Vrouw-Lombeek",50.8197588,4.1101502,"Vlaams-Brabant"
1760,"Pamel",50.8449500,4.0710100,"Vlaams-Brabant"
1760,"Roosdaal",50.8314294,4.0879776,"Vlaams-Brabant"
1760,"Strijtem",50.8412507,4.1173658,"Vlaams-Brabant"
1761,"Borchtlombeek",50.8475374,4.1397680,"Vlaams-Brabant"
1770,"Liedekerke",50.8689100,4.0872900,"Vlaams-Brabant"
1780,"Wemmel",50.9103200,4.3009600,"Vlaams-Brabant"
1785,"Brussegem",50.9257400,4.2660800,"Vlaams-Brabant"
1785,"Hamme",50.9204200,4.2806100,"Vlaams-Brabant"
1785,"Merchtem",50.9584200,4.2324400,"Vlaams-Brabant"
1790,"Affligem",50.9084000,4.1128100,"Vlaams-Brabant"
1790,"Essene",50.9015743,4.1364265,"Vlaams-Brabant"
1790,"Hekelgem",50.9072267,4.1084956,"Vlaams-Brabant"
1790,"Teralfene",50.8922688,4.0987022,"Vlaams-Brabant"
1800,"Peutie",50.9273610,4.4554420,"Vlaams-Brabant"
1800,"Vilvoorde",50.9272511,4.4257868,"Vlaams-Brabant"
1804,"Cargovil",50.9472590,4.4272680,"Vlaams-Brabant"
1818,"Vtm",50.9136056,4.3981412,"Vlaams-Brabant"
1820,"Melsbroek",50.9153500,4.4787175,"Vlaams-Brabant"
1820,"Perk",50.9348800,4.4959200,"Vlaams-Brabant"
1820,"Steenokkerzeel",50.9079300,4.5134900,"Vlaams-Brabant"
1830,"Machelen",50.9125185,4.4376749,"Vlaams-Brabant"
1831,"Diegem",50.8940397,4.4362628,"Vlaams-Brabant"
1840,"Londerzeel",51.0031100,4.3026000,"Vlaams-Brabant"
1840,"Malderen",51.0203300,4.2462900,"Vlaams-Brabant"
1840,"Steenhuffel",50.9957700,4.2671600,"Vlaams-Brabant"
1850,"Grimbergen",50.9356235,4.3785596,"Vlaams-Brabant"
1851,"Humbeek",50.9672327,4.3795118,"Vlaams-Brabant"
1852,"Beigem",50.9528364,4.3660653,"Vlaams-Brabant"
1853,"Strombeek-Bever",50.9104650,4.3577920,"Vlaams-Brabant"
1860,"Meise",50.9478621,4.3302827,"Vlaams-Brabant"
1861,"Wolvertem",50.9508800,4.3092700,"Vlaams-Brabant"
1880,"Kapelle-Op-Den-Bos",51.0132400,4.3554100,"Vlaams-Brabant"
1880,"Nieuwenrode",50.9785700,4.3522900,"Vlaams-Brabant"
1880,"Ramsdonk",51.0148300,4.3351900,"Vlaams-Brabant"
1910,"Berg",50.9316005,4.5377032,"Vlaams-Brabant"
1910,"Buken",50.9403268,4.6169484,"Vlaams-Brabant"
1910,"Kampenhout",50.9338827,4.5605498,"Vlaams-Brabant"
1910,"Nederokkerzeel",50.9220293,4.5633381,"Vlaams-Brabant"
1930,"Nossegem",50.8781921,4.5074739,"Vlaams-Brabant"
1930,"Zaventem",50.8795024,4.4826212,"Vlaams-Brabant"
1931,"Brucargo",50.9032930,4.4522140,"Vlaams-Brabant"
1932,"Sint-Stevens-Woluwe",50.8691972,4.4502354,"Vlaams-Brabant"
1933,"Sterrebeek",50.8654294,4.4726200,"Vlaams-Brabant"
1934,"Office Exchange Brussels Airport Remailing",50.8969448,4.4843148,"Vlaams-Brabant"
1935,"Corporate Village",50.8898980,4.4580055,"Vlaams-Brabant"
1950,"Kraainem",50.8610856,4.4592974,"Vlaams-Brabant"
1970,"Wezembeek-Oppem",50.8509200,4.4874200,"Vlaams-Brabant"
1980,"Eppegem",50.9621231,4.4544329,"Vlaams-Brabant"
1980,"Zemst",50.9855350,4.4558340,"Vlaams-Brabant"
1981,"Hofstade",50.9916699,4.4924542,"Vlaams-Brabant"
1982,"Elewijt",50.9618503,4.4964542,"Vlaams-Brabant"
1982,"Weerde",50.9721843,4.4793294,"Vlaams-Brabant"
2000,"Antwerpen",51.2198771,4.4011356,"Antwerpen"
2018,"Antwerpen",51.2037695,4.4112637,"Antwerpen"
2020,"Antwerpen",51.1890846,4.3836284,"Antwerpen"
2030,"Antwerpen",51.2763963,4.3624604,"Antwerpen"
2040,"Antwerpen",51.3418306,4.2964605,"Antwerpen"
2040,"Berendrecht",51.3428700,4.3140900,"Antwerpen"
2040,"Lillo",51.3043600,4.2802600,"Antwerpen"
2040,"Zandvliet",51.3596500,4.3071600,"Antwerpen"
2050,"Antwerpen",51.2287575,4.3740221,"Antwerpen"
2060,"Antwerpen",51.2269388,4.4276298,"Antwerpen"
2070,"Burcht",51.2036700,4.3414800,"Antwerpen"
2070,"Zwijndrecht",51.2164116,4.3335905,"Antwerpen"
2099,"Antwerpen X",51.2083343,4.4111603,"Antwerpen"
2100,"Deurne",51.2207104,4.4648012,"Antwerpen"
2110,"Wijnegem",51.2298182,4.5108974,"Antwerpen"
2140,"Borgerhout",51.2143174,4.4348985,"Antwerpen"
2150,"Borsbeek",51.1966684,4.4856299,"Antwerpen"
2160,"Wommelgem",51.2021676,4.5219648,"Antwerpen"
2170,"Merksem",51.2512741,4.4485390,"Antwerpen"
2180,"Ekeren",51.2807314,4.4184495,"Antwerpen"
2200,"Herentals",51.1768785,4.8356480,"Antwerpen"
2200,"Morkhoven",51.1200863,4.8207292,"Antwerpen"
2200,"Noorderwijk",51.1393923,4.8388348,"Antwerpen"
2220,"Hallaar",51.0846400,4.7329300,"Antwerpen"
2220,"Heist-Op-Den-Berg",51.0633847,4.7210601,"Antwerpen"
2221,"Booischot",51.0515100,4.7752300,"Antwerpen"
2222,"Itegem",51.1032100,4.7292700,"Antwerpen"
2222,"Wiekevorst",51.1091400,4.7944915,"Antwerpen"
2223,"Schriek",51.0274500,4.6927200,"Antwerpen"
2230,"Herselt",51.0523800,4.8806800,"Antwerpen"
2230,"Ramsel",51.0321100,4.8328000,"Antwerpen"
2235,"Houtvenne",51.0420800,4.8089400,"Antwerpen"
2235,"Hulshout",51.0647242,4.8165080,"Antwerpen"
2235,"Westmeerbeek",51.0603200,4.8351000,"Antwerpen"
2240,"Massenhoven",51.1986273,4.6364247,"Antwerpen"
2240,"Viersel",51.1890184,4.6523097,"Antwerpen"
2240,"Zandhoven",51.2021793,4.6554212,"Antwerpen"
2242,"Pulderbos",51.2165685,4.6919000,"Antwerpen"
2243,"Pulle",51.2032977,4.7137397,"Antwerpen"
2250,"Olen",51.1440245,4.8599119,"Antwerpen"
2260,"Oevel",51.1387198,4.9042615,"Antwerpen"
2260,"Tongerlo",51.1053300,4.9156500,"Antwerpen"
2260,"Westerlo",51.0899524,4.9143395,"Antwerpen"
2260,"Zoerle-Parwijs",51.0887900,4.8689400,"Antwerpen"
2270,"Herenthout",51.1394506,4.7564892,"Antwerpen"
2275,"Gierle",51.2671512,4.8677063,"Antwerpen"
2275,"Lille",51.2420452,4.8232254,"Antwerpen"
2275,"Poederlee",51.2263125,4.8353147,"Antwerpen"
2275,"Wechelderzande",51.2645356,4.7999275,"Antwerpen"
2280,"Grobbendonk",51.1832616,4.7349959,"Antwerpen"
2288,"Bouwel",51.1719684,4.7420582,"Antwerpen"
2290,"Vorselaar",51.2025247,4.7708827,"Antwerpen"
2300,"Turnhout",51.3216509,4.9375577,"Antwerpen"
2310,"Rijkevorsel",51.3480582,4.7605267,"Antwerpen"
2320,"Hoogstraten",51.4032970,4.7468218,"Antwerpen"
2321,"Meer",51.4456000,4.7383000,"Antwerpen"
2322,"Minderhout",51.4165400,4.7633900,"Antwerpen"
2323,"Wortel",51.3975100,4.7947500,"Antwerpen"
2328,"Meerle",51.4733516,4.8037690,"Antwerpen"
2330,"Merksplas",51.3581850,4.8635657,"Antwerpen"
2340,"Beerse",51.3194900,4.8548200,"Antwerpen"
2340,"Vlimmeren",51.2971394,4.7820454,"Antwerpen"
2350,"Vosselaar",51.3030836,4.8834494,"Antwerpen"
2360,"Oud-Turnhout",51.3177601,4.9828450,"Antwerpen"
2370,"Arendonk",51.3220490,5.0863348,"Antwerpen"
2380,"Ravels",51.3762015,5.0185568,"Antwerpen"
2381,"Weelde",51.4067630,4.9908357,"Antwerpen"
2382,"Poppel",51.4471741,5.0431801,"Antwerpen"
2387,"Baarle-Hertog",51.4418320,4.9317360,"Antwerpen"
2390,"Malle",51.2968136,4.6942633,"Antwerpen"
2390,"Oostmalle",51.3011370,4.7337542,"Antwerpen"
2390,"Westmalle",51.2968136,4.6942633,"Antwerpen"
2400,"Mol",51.1910870,5.1170647,"Antwerpen"
2430,"Eindhout",51.1033400,4.9997000,"Antwerpen"
2430,"Laakdal",51.0873823,5.0242977,"Antwerpen"
2430,"Vorst",51.0797300,5.0202400,"Antwerpen"
2431,"Varendonk",51.0839700,4.9513000,"Antwerpen"
2431,"Veerle",51.0699400,4.9872100,"Antwerpen"
2440,"Geel",51.1625700,4.9908400,"Antwerpen"
2450,"Meerhout",51.1321900,5.0770800,"Antwerpen"
2460,"Kasterlee",51.2405204,4.9674449,"Antwerpen"
2460,"Lichtaart",51.2197251,4.9108088,"Antwerpen"
2460,"Tielen",51.2434976,4.8976789,"Antwerpen"
2470,"Retie",51.2669664,5.0842508,"Antwerpen"
2480,"Dessel",51.2398500,5.1126900,"Antwerpen"
2490,"Balen",51.1578305,5.2100666,"Antwerpen"
2491,"Olmen",51.1420912,5.1507200,"Antwerpen"
2500,"Koningshooikt",51.0952200,4.6101100,"Antwerpen"
2500,"Lier",51.1302138,4.5715092,"Antwerpen"
2520,"Broechem",51.1813334,4.6020124,"Antwerpen"
2520,"Emblem",51.1620413,4.6050680,"Antwerpen"
2520,"Oelegem",51.2129972,4.5997149,"Antwerpen"
2520,"Ranst",51.1890940,4.5609095,"Antwerpen"
2530,"Boechout",51.1664397,4.4971700,"Antwerpen"
2531,"Vremde",51.1748600,4.5231100,"Antwerpen"
2540,"Hove",51.1539722,4.4711513,"Antwerpen"
2547,"Lint",51.1272300,4.4966900,"Antwerpen"
2550,"Kontich",51.1352235,4.4448202,"Antwerpen"
2550,"Waarloos",51.1050610,4.4546959,"Antwerpen"
2560,"Bevel",51.1377400,4.6803800,"Antwerpen"
2560,"Kessel",51.1391500,4.6296800,"Antwerpen"
2560,"Nijlen",51.1613531,4.6706015,"Antwerpen"
2570,"Duffel",51.0953745,4.5052038,"Antwerpen"
2580,"Beerzel",51.0578600,4.6676400,"Antwerpen"
2580,"Putte",51.0547600,4.6286700,"Antwerpen"
2590,"Berlaar",51.1180400,4.6575200,"Antwerpen"
2590,"Gestel",51.1284000,4.6731600,"Antwerpen"
2600,"Berchem",51.1898560,4.4329510,"Antwerpen"
2610,"Wilrijk",51.1683102,4.3942868,"Antwerpen"
2620,"Hemiksem",51.1451800,4.3383400,"Antwerpen"
2627,"Schelle",51.1269186,4.3388412,"Antwerpen"
2630,"Aartselaar",51.1340539,4.3844742,"Antwerpen"
2640,"Mortsel",51.1728522,4.4665225,"Antwerpen"
2650,"Edegem",51.1559541,4.4318937,"Antwerpen"
2660,"Hoboken",51.1775732,4.3499200,"Antwerpen"
2800,"Mechelen",51.0258791,4.4775365,"Antwerpen"
2800,"Walem",51.0676813,4.4572147,"Antwerpen"
2801,"Heffen",51.0468914,4.4137291,"Antwerpen"
2811,"Hombeek",51.0143560,4.4427697,"Antwerpen"
2811,"Leest",51.0328978,4.4176682,"Antwerpen"
2812,"Muizen",51.0103798,4.5157593,"Antwerpen"
2820,"Bonheiden",51.0222100,4.5480300,"Antwerpen"
2820,"Rijmenam",51.0037609,4.5902677,"Antwerpen"
2830,"Blaasveld",51.0558300,4.3771900,"Antwerpen"
2830,"Heindonk",51.0673000,4.4075600,"Antwerpen"
2830,"Tisselt",51.0343700,4.3571700,"Antwerpen"
2830,"Willebroek",51.0597994,4.3640791,"Antwerpen"
2840,"Reet",51.1011334,4.4125882,"Antwerpen"
2840,"Rumst",51.0804212,4.4217895,"Antwerpen"
2840,"Terhagen",51.0791977,4.3992612,"Antwerpen"
2845,"Niel",51.1106400,4.3320700,"Antwerpen"
2850,"Boom",51.0860800,4.3663300,"Antwerpen"
2860,"Sint-Katelijne-Waver",51.0614235,4.5055555,"Antwerpen"
2861,"Onze-Lieve-Vrouw-Waver",51.0618859,4.5787019,"Antwerpen"
2870,"Breendonk",51.0430900,4.3220400,"Antwerpen"
2870,"Liezele",51.0608200,4.2802300,"Antwerpen"
"2870,2890","Puurs-Sint-Amands",51.0555561,4.2538889,"Antwerpen"
2870,"Ruisbroek",51.0879900,4.3310700,"Antwerpen"
2880,"Bornem",51.0996057,4.2404586,"Antwerpen"
2880,"Hingene",51.1032985,4.2687874,"Antwerpen"
2880,"Mariekerke",51.0634883,4.1923418,"Antwerpen"
2880,"Weert",51.1034075,4.1901230,"Antwerpen"
2890,"Lippelo",51.0421500,4.2586000,"Antwerpen"
2890,"Oppuurs",51.0660700,4.2419900,"Antwerpen"
2900,"Schoten",51.2497532,4.4977063,"Antwerpen"
2910,"Essen",51.4677600,4.4684400,"Antwerpen"
2920,"Kalmthout",51.3829800,4.4751800,"Antwerpen"
2930,"Brasschaat",51.2922700,4.4941900,"Antwerpen"
2940,"Hoevenen",51.3061855,4.4047295,"Antwerpen"
2940,"Stabroek",51.3347290,4.3716890,"Antwerpen"
2950,"Kapellen",51.3140240,4.4323815,"Antwerpen"
2960,"Brecht",51.3496533,4.6377227,"Antwerpen"
2960,"Sint-Job-In-'t-Goor",51.2982700,4.5732000,"Antwerpen"
2960,"Sint-Lenaarts",51.3486900,4.6770300,"Antwerpen"
2970,"'s Gravenwezel",51.2629200,4.5609600,"Antwerpen"
2970,"Schilde",51.2407352,4.5834231,"Antwerpen"
2980,"Halle",51.2398459,4.6465058,"Antwerpen"
2980,"Zoersel",51.2682227,4.7125694,"Antwerpen"
2990,"Loenhout",51.3990063,4.6432288,"Antwerpen"
2990,"Wuustwezel",51.3894040,4.5912302,"Antwerpen"
3000,"Leuven",50.8815197,4.6967578,"Vlaams-Brabant"
3001,"Heverlee",50.8638600,4.6959400,"Vlaams-Brabant"
3010,"Kessel Lo",50.8851400,4.7357100,"Vlaams-Brabant"
3012,"Wilsele",50.8904700,4.6945100,"Vlaams-Brabant"
3018,"Wijgmaal",50.9262400,4.7019500,"Vlaams-Brabant"
3020,"Herent",50.9092247,4.6768701,"Vlaams-Brabant"
3020,"Veltem-Beisem",50.9063184,4.6208250,"Vlaams-Brabant"
3020,"Winksele",50.8974666,4.6435179,"Vlaams-Brabant"
3040,"Huldenberg",50.7885995,4.5880687,"Vlaams-Brabant"
3040,"Loonbeek",50.8097200,4.6102900,"Vlaams-Brabant"
3040,"Neerijse",50.8174300,4.6234500,"Vlaams-Brabant"
3040,"Ottenburg",50.7519900,4.6157900,"Vlaams-Brabant"
3040,"Sint-Agatha-Rode",50.7855900,4.6340800,"Vlaams-Brabant"
3050,"Oud-Heverlee",50.8282606,4.6595340,"Vlaams-Brabant"
3051,"Sint-Joris-Weert",50.8027501,4.6528755,"Vlaams-Brabant"
3052,"Blanden",50.8255800,4.7091600,"Vlaams-Brabant"
3053,"Haasrode",50.8315900,4.7298800,"Vlaams-Brabant"
3054,"Vaalbeek",50.8255300,4.6893800,"Vlaams-Brabant"
3060,"Bertem",50.8632924,4.6307637,"Vlaams-Brabant"
3060,"Korbeek-Dijle",50.8380700,4.6382000,"Vlaams-Brabant"
3061,"Leefdaal",50.8486600,4.5939000,"Vlaams-Brabant"
3070,"Kortenberg",50.8855654,4.5374772,"Vlaams-Brabant"
3071,"Erps-Kwerps",50.9006097,4.5607782,"Vlaams-Brabant"
3078,"Everberg",50.8788296,4.5712345,"Vlaams-Brabant"
3078,"Meerbeek",50.8818641,4.5892898,"Vlaams-Brabant"
3080,"Duisburg",50.8156900,4.5518400,"Vlaams-Brabant"
3080,"Tervuren",50.8259264,4.5077781,"Vlaams-Brabant"
3080,"Vossem",50.8357700,4.5602600,"Vlaams-Brabant"
3090,"Overijse",50.7681029,4.5336216,"Vlaams-Brabant"
3110,"Rotselaar",50.9535967,4.7215113,"Vlaams-Brabant"
3111,"Wezemaal",50.9482000,4.7554100,"Vlaams-Brabant"
3118,"Werchter",50.9727800,4.7000700,"Vlaams-Brabant"
3120,"Tremelo",50.9956159,4.7159551,"Vlaams-Brabant"
3128,"Baal",50.9955500,4.7530400,"Vlaams-Brabant"
3130,"Begijnendijk",51.0188000,4.7826300,"Vlaams-Brabant"
3130,"Betekom",50.9856600,4.7817000,"Vlaams-Brabant"
3140,"Keerbergen",51.0057936,4.6320416,"Vlaams-Brabant"
3150,"Haacht",50.9789400,4.6413400,"Vlaams-Brabant"
3150,"Tildonk",50.9432700,4.6444900,"Vlaams-Brabant"
3150,"Wespelaar",50.9599100,4.6388400,"Vlaams-Brabant"
3190,"Boortmeerbeek",50.9803397,4.5744373,"Vlaams-Brabant"
3191,"Hever",50.9950000,4.5513500,"Vlaams-Brabant"
3200,"Aarschot",50.9806151,4.8273810,"Vlaams-Brabant"
3200,"Gelrode",50.9654800,4.8027200,"Vlaams-Brabant"
3201,"Langdorp",50.9953100,4.8708300,"Vlaams-Brabant"
3202,"Rillaar",50.9743800,4.8942200,"Vlaams-Brabant"
3210,"Linden",50.8939300,4.7721500,"Vlaams-Brabant"
3210,"Lubbeek",50.8813339,4.8292252,"Vlaams-Brabant"
3211,"Binkom",50.8711900,4.8843900,"Vlaams-Brabant"
3212,"Pellenberg",50.8715002,4.7938490,"Vlaams-Brabant"
3220,"Holsbeek",50.9248584,4.7861502,"Vlaams-Brabant"
3220,"Kortrijk-Dutsel",50.9266825,4.8055097,"Vlaams-Brabant"
3220,"Sint-Pieters-Rode",50.9323900,4.8205700,"Vlaams-Brabant"
3221,"Nieuwrode",50.9495500,4.8333900,"Vlaams-Brabant"
3270,"Scherpenheuvel",50.9800833,4.9753544,"Vlaams-Brabant"
3270,"Scherpenheuvel-Zichem",50.9742707,4.9785767,"Vlaams-Brabant"
3271,"Averbode",51.0305467,4.9774540,"Vlaams-Brabant"
3271,"Zichem",51.0006721,4.9830118,"Vlaams-Brabant"
3272,"Messelbroek",50.9933331,4.9274801,"Vlaams-Brabant"
3272,"Testelt",51.0169210,4.9549334,"Vlaams-Brabant"
3290,"Deurne",51.0393600,5.0964800,"Vlaams-Brabant"
3290,"Diest",51.0010401,5.0852169,"Vlaams-Brabant"
3290,"Schaffen",50.9997500,5.0848400,"Vlaams-Brabant"
3290,"Webbekom",50.9722766,5.0720072,"Vlaams-Brabant"
3293,"Kaggevinne",50.9793700,5.0189600,"Vlaams-Brabant"
3294,"Molenstede",51.0037800,5.0134700,"Vlaams-Brabant"
3300,"Bost",50.7883900,4.9406300,"Vlaams-Brabant"
3300,"Goetsenhoven",50.7678100,4.9511400,"Vlaams-Brabant"
3300,"Hakendover",50.7970600,4.9852500,"Vlaams-Brabant"
3300,"Kumtich",50.8224600,4.8874200,"Vlaams-Brabant"
3300,"Oorbeek",50.7981100,4.8924000,"Vlaams-Brabant"
3300,"Oplinter",50.8292300,4.9875700,"Vlaams-Brabant"
3300,"Sint-Margriete-Houtem",50.8283600,4.9553900,"Vlaams-Brabant"
3300,"Tienen",50.8105700,4.9362200,"Vlaams-Brabant"
3300,"Vissenaken",50.8376800,4.9048400,"Vlaams-Brabant"
3320,"Hoegaarden",50.7806488,4.8685676,"Vlaams-Brabant"
3320,"Meldert",50.7880100,4.8377200,"Vlaams-Brabant"
3321,"Outgaarden",50.7652100,4.9179300,"Vlaams-Brabant"
3350,"Drieslinter",50.8460500,5.0504800,"Vlaams-Brabant"
3350,"Linter",50.8415100,5.0366100,"Vlaams-Brabant"
3350,"Melkwezer",50.8252947,5.0613545,"Vlaams-Brabant"
3350,"Neerhespen",50.7918055,5.0548854,"Vlaams-Brabant"
3350,"Neerlinter",50.8398055,5.0221970,"Vlaams-Brabant"
3350,"Orsmaal-Gussenhoven",50.8033315,5.0620563,"Vlaams-Brabant"
3350,"Overhespen",50.7954085,5.0360799,"Vlaams-Brabant"
3350,"Wommersom",50.8134204,5.0179520,"Vlaams-Brabant"
3360,"Bierbeek",50.8279000,4.7598100,"Vlaams-Brabant"
3360,"Korbeek-Lo",50.8601903,4.7626896,"Vlaams-Brabant"
3360,"Lovenjoel",50.8581300,4.7814800,"Vlaams-Brabant"
3360,"Opvelp",50.8100900,4.7933300,"Vlaams-Brabant"
3370,"Boutersem",50.8410900,4.8347100,"Vlaams-Brabant"
3370,"Kerkom",50.8551900,4.8745100,"Vlaams-Brabant"
3370,"Neervelp",50.8210000,4.8081100,"Vlaams-Brabant"
3370,"Roosbeek",50.8356400,4.8623100,"Vlaams-Brabant"
3370,"Vertrijk",50.8297600,4.8345500,"Vlaams-Brabant"
3370,"Willebringen",50.8128100,4.8449100,"Vlaams-Brabant"
3380,"Bunsbeek",50.8421650,4.9426464,"Vlaams-Brabant"
3380,"Glabbeek",50.8602725,4.9583256,"Vlaams-Brabant"
3381,"Kapellen",50.8852681,4.9501898,"Vlaams-Brabant"
3384,"Attenrode",50.8771186,4.9242614,"Vlaams-Brabant"
3390,"Houwaart",50.9328147,4.8580637,"Vlaams-Brabant"
3390,"Sint-Joris-Winge",50.9077298,4.8768396,"Vlaams-Brabant"
3390,"Tielt",50.9408920,4.9046956,"Vlaams-Brabant"
3390,"Tielt-Winge",50.9206968,4.8866603,"Vlaams-Brabant"
3391,"Meensel-Kiezegem",50.8964842,4.9257825,"Vlaams-Brabant"
3400,"Eliksem",50.7848700,5.0096800,"Vlaams-Brabant"
3400,"Ezemaal",50.7760900,5.0001600,"Vlaams-Brabant"
3400,"Laar",50.7715800,5.0257200,"Vlaams-Brabant"
3400,"Landen",50.7628602,5.0421020,"Vlaams-Brabant"
3400,"Neerwinden",50.7661600,5.0443400,"Vlaams-Brabant"
3400,"Overwinden",50.7531800,5.0489000,"Vlaams-Brabant"
3400,"Rumsdorp",50.7661900,5.0762300,"Vlaams-Brabant"
3400,"Wange",50.7859800,5.0317600,"Vlaams-Brabant"
3401,"Waasmont",50.7272400,5.0623100,"Vlaams-Brabant"
3401,"Walsbets",50.7372300,5.0852800,"Vlaams-Brabant"
3401,"Walshoutem",50.7237300,5.0955300,"Vlaams-Brabant"
3401,"Wezeren",50.7300800,5.1048500,"Vlaams-Brabant"
3404,"Attenhoven",50.7665200,5.0930800,"Vlaams-Brabant"
3404,"Neerlanden",50.7781200,5.0790100,"Vlaams-Brabant"
3440,"Budingen",50.8654000,5.0981100,"Vlaams-Brabant"
3440,"Dormaal",50.8072200,5.0985000,"Vlaams-Brabant"
3440,"Halle-Booienhoven",50.8047500,5.1116800,"Vlaams-Brabant"
3440,"Helen-Bos",50.8182300,5.0822000,"Vlaams-Brabant"
3440,"Zoutleeuw",50.8323100,5.1044200,"Vlaams-Brabant"
3450,"Geetbets",50.8902757,5.1095641,"Vlaams-Brabant"
3450,"Grazen",50.8752077,5.1308353,"Vlaams-Brabant"
3454,"Rummen",50.8889069,5.1656281,"Vlaams-Brabant"
3460,"Assent",50.9526086,5.0159442,"Vlaams-Brabant"
3460,"Bekkevoort",50.9426234,4.9856410,"Vlaams-Brabant"
3461,"Molenbeek-Wersbeek",50.9184738,4.9415359,"Vlaams-Brabant"
3470,"Kortenaken",50.8973765,5.0663974,"Vlaams-Brabant"
3470,"Ransberg",50.8743562,5.0377616,"Vlaams-Brabant"
3470,"Sint-Margriete-Houtem",50.8128004,3.2790522,"Vlaams-Brabant"
3471,"Hoeleden",50.8681697,4.9869044,"Vlaams-Brabant"
3472,"Kersbeek-Miskom",50.8858124,4.9958008,"Vlaams-Brabant"
3473,"Waanrode",50.9161837,5.0046920,"Vlaams-Brabant"
3500,"Hasselt",50.9215166,5.3447405,"Limburg"
3500,"Sint-Lambrechts-Herk",50.8984100,5.3074100,"Limburg"
3501,"Wimmertingen",50.8831759,5.3526453,"Limburg"
3510,"Kermt",50.9476700,5.2467600,"Limburg"
3510,"Spalbeek",50.9486672,5.2247223,"Limburg"
3511,"Kuringen",50.9438700,5.2978900,"Limburg"
3511,"Stokrooie",50.9661900,5.2813400,"Limburg"
3512,"Stevoort",50.9183000,5.2531600,"Limburg"
3520,"Zonhoven",50.9870700,5.3671600,"Limburg"
3530,"Helchteren",51.0565512,5.3826921,"Limburg"
3530,"Houthalen",51.0314627,5.3763541,"Limburg"
3530,"Houthalen-Helchteren",51.0312424,5.3765453,"Limburg"
3540,"Berbroek",50.9503306,5.2083451,"Limburg"
3540,"Donk",50.9382225,5.1344391,"Limburg"
3540,"Herk-De-Stad",50.9392300,5.1671200,"Limburg"
3540,"Schulen",50.9599580,5.1904844,"Limburg"
3545,"Halen",50.9485000,5.1111700,"Limburg"
3545,"Loksbergen",50.9342585,5.0695638,"Limburg"
3545,"Zelem",50.9781579,5.1057744,"Limburg"
3550,"Heusden",51.0354099,5.2830570,"Limburg"
3550,"Heusden-Zolder",51.0384819,5.2904127,"Limburg"
3550,"Zolder",51.0229535,5.3097324,"Limburg"
3560,"Linkhout",50.9681200,5.1368700,"Limburg"
3560,"Lummen",50.9876100,5.1951100,"Limburg"
3560,"Meldert",50.9986700,5.1418000,"Limburg"
3570,"Alken",50.8760900,5.3076700,"Limburg"
3580,"Beringen",51.0473373,5.2214769,"Limburg"
3581,"Beverlo",51.0873000,5.2189800,"Limburg"
3582,"Koersel",51.0584400,5.2717600,"Limburg"
3583,"Paal",51.0395300,5.1716500,"Limburg"
3590,"Diepenbeek",50.9108300,5.4133600,"Limburg"
3600,"Genk",50.9661300,5.5021000,"Limburg"
3620,"Gellik",50.8839114,5.6103183,"Limburg"
3620,"Lanaken",50.8919602,5.6398572,"Limburg"
3620,"Neerharen",50.9088851,5.6808314,"Limburg"
3620,"Veldwezelt",50.8677788,5.6305961,"Limburg"
3621,"Rekem",50.9224749,5.6957272,"Limburg"
3630,"Eisden",50.9854566,5.7140769,"Limburg"
3630,"Leut",50.9900244,5.7350908,"Limburg"
3630,"Maasmechelen",50.9692780,5.6619185,"Limburg"
3630,"Mechelen-Aan-De-Maas",50.9797588,5.7018567,"Limburg"
3630,"Meeswijk",50.9995012,5.7496822,"Limburg"
3630,"Opgrimbie",50.9432913,5.6809579,"Limburg"
3630,"Vucht",50.9787264,5.7106715,"Limburg"
3631,"Boorsem",50.9408237,5.7197843,"Limburg"
3631,"Uikhoven",50.9236770,5.7183356,"Limburg"
3640,"Kessenich",51.1514200,5.8229700,"Limburg"
3640,"Kinrooi",51.1455200,5.7411300,"Limburg"
3640,"Molenbeersel",51.1700200,5.7375800,"Limburg"
3640,"Ophoven",51.1255900,5.8020400,"Limburg"
3650,"Dilsen",51.0374700,5.7221500,"Limburg"
3650,"Dilsen-Stokkem",51.0301998,5.7000888,"Limburg"
3650,"Elen",51.0665500,5.7508300,"Limburg"
3650,"Lanklaar",51.0188000,5.7262000,"Limburg"
3650,"Rotem",51.0529700,5.7411800,"Limburg"
3650,"Stokkem",51.0236400,5.7441800,"Limburg"
"3660,3670","Oudsbergen",51.0500000,5.6000000,"Limburg"
3665,"As",50.9997751,5.5715438,"Limburg"
3668,"Niel-Bij-As",51.0176272,5.6045057,"Limburg"
3670,"Ellikom",51.1271900,5.5236600,"Limburg"
3670,"Meeuwen",51.0986700,5.5205000,"Limburg"
3670,"Meeuwen-Gruitrode",51.0949500,5.5478400,"Limburg"
3670,"Neerglabbeek",51.0914400,5.6167600,"Limburg"
3670,"Wijshagen",51.1046100,5.5588100,"Limburg"
3680,"Maaseik",51.0983909,5.7837625,"Limburg"
3680,"Neeroeteren",51.0918046,5.6995386,"Limburg"
3680,"Opoeteren",51.0675622,5.6594443,"Limburg"
3690,"Zutendaal",50.9319600,5.5722700,"Limburg"
3700,"'s Herenelderen",50.8089063,5.5032825,"Limburg"
3700,"Berg",50.7918300,5.4949400,"Limburg"
3700,"Diets-Heur",50.7453303,5.4828472,"Limburg"
3700,"Haren",50.7979251,5.4020478,"Limburg"
3700,"Henis",50.7992000,5.4712200,"Limburg"
3700,"Kolmont",50.8041000,5.4237300,"Limburg"
3700,"Koninksem",50.7653100,5.4399700,"Limburg"
3700,"Lauw",50.7392355,5.4148753,"Limburg"
3700,"Mal",50.7684738,5.5214638,"Limburg"
3700,"Neerrepen",50.8110492,5.4442140,"Limburg"
3700,"Nerem",50.7649963,5.5104893,"Limburg"
3700,"Overrepen",50.8070423,5.4315896,"Limburg"
3700,"Piringen",50.7864119,5.4178871,"Limburg"
3700,"Riksingen",50.8051007,5.4632976,"Limburg"
3700,"Rutten",50.7478825,5.4423901,"Limburg"
3700,"Sluizen",50.7653436,5.5314429,"Limburg"
3700,"Tongeren",50.7841900,5.4744900,"Limburg"
3700,"Vreren",50.7515842,5.4974649,"Limburg"
3700,"Widooie",50.7713726,5.4084338,"Limburg"
3717,"Herstappe",50.7265300,5.4260000,"Limburg"
3720,"Kortessem",50.8625531,5.3781216,"Limburg"
3721,"Vliermaalroot",50.8637784,5.4240097,"Limburg"
3722,"Wintershoven",50.8526300,5.4196800,"Limburg"
3723,"Guigoven",50.8390899,5.3991570,"Limburg"
3724,"Vliermaal",50.8394948,5.4289047,"Limburg"
3730,"Hoeselt",50.8497352,5.4911243,"Limburg"
3730,"Romershoven",50.8559840,5.4598837,"Limburg"
3730,"Sint-Huibrechts-Hern",50.8298500,5.4492483,"Limburg"
3730,"Werm",50.8328482,5.4802846,"Limburg"
3732,"Schalkhoven",50.8414306,5.4495653,"Limburg"
3740,"Beverst",50.8902246,5.4751710,"Limburg"
3740,"Bilzen",50.8719054,5.5166463,"Limburg"
3740,"Eigenbilzen",50.8746121,5.5746355,"Limburg"
3740,"Grote-Spouwen",50.8315692,5.5519685,"Limburg"
3740,"Hees",50.8466302,5.6093720,"Limburg"
3740,"Kleine-Spouwen",50.8381087,5.5483654,"Limburg"
3740,"Mopertingen",50.8606327,5.5756295,"Limburg"
3740,"Munsterbilzen",50.8897326,5.5261669,"Limburg"
3740,"Rijkhoven",50.8329777,5.5150984,"Limburg"
3740,"Rosmeer",50.8456546,5.5806307,"Limburg"
3740,"Waltwilder",50.8658211,5.5441802,"Limburg"
3742,"Martenslinde",50.8565985,5.5332305,"Limburg"
3746,"Hoelbeek",50.8718626,5.5564999,"Limburg"
3770,"Genoelselderen",50.8029700,5.5388450,"Limburg"
3770,"Herderen",50.8065724,5.5723296,"Limburg"
3770,"Kanne",50.8140550,5.6693136,"Limburg"
3770,"Membruggen",50.8141975,5.5343399,"Limburg"
3770,"Millen",50.7856375,5.5561104,"Limburg"
3770,"Riemst",50.8089945,5.6012328,"Limburg"
3770,"Val-Meer",50.7862227,5.5962800,"Limburg"
3770,"Vlijtingen",50.8320854,5.5842906,"Limburg"
3770,"Vroenhoven",50.8263221,5.6400304,"Limburg"
3770,"Zichen-Zussen-Bolder",50.7933496,5.6245555,"Limburg"
3790,"Moelingen",50.7570096,5.7134973,"Limburg"
3790,"Sint-Martens-Voeren",50.7485199,5.8122336,"Limburg"
3790,"Voeren",50.7464187,5.8409039,"Limburg"
3791,"Remersdaal",50.7315308,5.8808478,"Limburg"
3792,"Sint-Pieters-Voeren",50.7383570,5.8226791,"Limburg"
3793,"Teuven",50.7518324,5.8759546,"Limburg"
3798,"S Gravenvoeren",50.7587829,5.7611628,"Limburg"
3800,"Aalst",50.7816600,5.2089800,"Limburg"
3800,"Brustem",50.8056500,5.2218700,"Limburg"
3800,"Engelmanshoven",50.7713400,5.2509200,"Limburg"
3800,"Gelinden",50.7655200,5.2609200,"Limburg"
3800,"Groot-Gelmen",50.7852500,5.2629600,"Limburg"
3800,"Halmaal",50.8058900,5.1557400,"Limburg"
3800,"Kerkom-Bij-Sint-Truiden",50.7742900,5.1778700,"Limburg"
3800,"Ordingen",50.8128500,5.2352100,"Limburg"
3800,"Sint-Truiden",50.8019192,5.2202655,"Limburg"
3800,"Zepperen",50.8211600,5.2476700,"Limburg"
3803,"Duras",50.8355200,5.1463800,"Limburg"
3803,"Gorsem",50.8348300,5.1619500,"Limburg"
3803,"Runkelen",50.8468100,5.1508800,"Limburg"
3803,"Wilderen",50.8158700,5.1413600,"Limburg"
3806,"Velm",50.7793100,5.1316200,"Limburg"
3830,"Berlingen",50.8197100,5.3112100,"Limburg"
3830,"Wellen",50.8436052,5.3362409,"Limburg"
3831,"Herten",50.8320635,5.3321062,"Limburg"
3832,"Ulbeek",50.8438100,5.3046500,"Limburg"
3840,"Bommershoven",50.7880000,5.3790400,"Limburg"
3840,"Borgloon",50.8061300,5.3430200,"Limburg"
3840,"Broekom",50.7823800,5.3317600,"Limburg"
3840,"Gors-Opleeuw",50.8233766,5.3967118,"Limburg"
3840,"Gotem",50.8051500,5.3135100,"Limburg"
3840,"Groot-Loon",50.7924700,5.3633800,"Limburg"
3840,"Haren",50.7927400,5.3995300,"Limburg"
3840,"Hendrieken",50.7988900,5.3281100,"Limburg"
3840,"Hoepertingen",50.8123500,5.2836800,"Limburg"
3840,"Jesseren",50.8059400,5.3898900,"Limburg"
3840,"Kerniel",50.8163200,5.3636800,"Limburg"
3840,"Kolmont",50.8031485,5.4230892,"Limburg"
3840,"Kuttekoven",50.8090000,5.3260300,"Limburg"
3840,"Rijkel",50.8098900,5.2608300,"Limburg"
3840,"Voort",50.7947800,5.3197100,"Limburg"
3850,"Binderveld",50.8608000,5.1648100,"Limburg"
3850,"Kozen",50.8749600,5.2398500,"Limburg"
3850,"Nieuwerkerken",50.8647500,5.1886900,"Limburg"
3850,"Wijer",50.8983800,5.2239100,"Limburg"
3870,"Batsheers",50.7385500,5.2813400,"Limburg"
3870,"Bovelingen",50.7375212,5.2600349,"Limburg"
3870,"Gutshoven",50.7738900,5.3171300,"Limburg"
3870,"Heers",50.7536800,5.3020900,"Limburg"
3870,"Heks",50.7701000,5.3575100,"Limburg"
3870,"Horpmaal",50.7604900,5.3356700,"Limburg"
3870,"Klein-Gelmen",50.7697800,5.2769400,"Limburg"
3870,"Mechelen-Bovelingen",50.7405400,5.2604900,"Limburg"
3870,"Mettekoven",50.7810300,5.2906200,"Limburg"
3870,"Opheers",50.7397200,5.2976600,"Limburg"
3870,"Rukkelingen-Loon",50.7278400,5.2544400,"Limburg"
3870,"Vechmaal",50.7614100,5.3746600,"Limburg"
3870,"Veulen",50.7637100,5.3057800,"Limburg"
3890,"Boekhout",50.7456800,5.2335300,"Limburg"
3890,"Gingelom",50.7498800,5.1332000,"Limburg"
3890,"Jeuk",50.7342700,5.2096900,"Limburg"
3890,"Kortijs",50.7074500,5.1494400,"Limburg"
3890,"Montenaken",50.7210100,5.1272100,"Limburg"
3890,"Niel-Bij-Sint-Truiden",50.7421700,5.1420500,"Limburg"
3890,"Vorsen",50.7039100,5.1685800,"Limburg"
3891,"Borlo",50.7421600,5.1813500,"Limburg"
3891,"Buvingen",50.7529400,5.1776700,"Limburg"
3891,"Mielen-Boven-Aalst",50.7554353,5.2150212,"Limburg"
3891,"Muizen",50.7602400,5.1794400,"Limburg"
"3900,3910","Pelt",51.2333333,5.4333333,"Limburg"
3910,"Sint-Huibrechts-Lille",51.2225100,5.4957600,"Limburg"
3920,"Lommel",51.2304193,5.3110063,"Limburg"
3930,"Achel",51.2522400,5.4795300,"Limburg"
3930,"Hamont",51.2527200,5.5495300,"Limburg"
3930,"Hamont-Achel",51.2697668,5.5154222,"Limburg"
3940,"Hechtel",51.1252349,5.3661124,"Limburg"
3940,"Hechtel-Eksel",51.1105222,5.3295958,"Limburg"
3941,"Eksel",51.1546138,5.3943545,"Limburg"
3945,"Ham",51.1038173,5.1777363,"Limburg"
3945,"Kwaadmechelen",51.1007200,5.1441600,"Limburg"
3945,"Oostham",51.1037300,5.1802200,"Limburg"
3950,"Bocholt",51.1729100,5.5789900,"Limburg"
3950,"Kaulille",51.1871700,5.5256800,"Limburg"
3950,"Reppel",51.1550600,5.5630900,"Limburg"
3960,"Beek",51.1558000,5.6035900,"Limburg"
3960,"Bree",51.1409900,5.5980200,"Limburg"
3960,"Gerdingen",51.1480400,5.5802000,"Limburg"
3960,"Opitter",51.1165700,5.6497200,"Limburg"
3960,"Tongerlo",51.1285600,5.6614500,"Limburg"
3970,"Leopoldsburg",51.1183684,5.2506950,"Limburg"
3971,"Heppen",51.1088735,5.2285739,"Limburg"
3980,"Tessenderlo",51.0642666,5.0881938,"Limburg"
3990,"Grote-Brogel",51.1543500,5.5083800,"Limburg"
3990,"Kleine-Brogel",51.1725800,5.4501900,"Limburg"
3990,"Peer",51.1329000,5.4536000,"Limburg"
3990,"Wijchmaal",51.1355600,5.4131100,"Limburg"
4000,"Glain",50.6478600,5.5435700,"Luik"
4000,"LiÈge",50.6350757,5.5628874,"Luik"
4000,"Rocourt",50.6758900,5.5458300,"Luik"
4020,"Bressoux",50.6399400,5.6059000,"Luik"
4020,"Jupille-Sur-Meuse",50.6454700,5.6348800,"Luik"
4020,"LiÈge",50.6423532,5.6279411,"Luik"
4020,"Wandre",50.6671500,5.6588300,"Luik"
4030,"Grivegnee",50.6216000,5.6107400,"Luik"
4031,"Angleur",50.6113500,5.5994300,"Luik"
4032,"Chênee",50.6122000,5.6137000,"Luik"
4040,"Herstal",50.6787306,5.6288850,"Luik"
4041,"Milmort",50.6903579,5.5922106,"Luik"
4041,"Vottem",50.6710455,5.5784697,"Luik"
4042,"Liers",50.6936460,5.5638281,"Luik"
4050,"Chaudfontaine",50.5896391,5.6427754,"Luik"
4051,"Vaux-Sous-Chèvremont",50.6010507,5.6318794,"Luik"
4052,"Beaufays",50.5586829,5.6387873,"Luik"
4053,"Embourg",50.5903039,5.6069213,"Luik"
4075,"Csm Liege X",50.5857729,5.6411104,"Luik"
4100,"Boncelles",50.5709023,5.5364671,"Luik"
4100,"Seraing",50.5838596,5.4996297,"Luik"
4101,"Jemeppe-Sur-Meuse",50.6175969,5.4951966,"Luik"
4102,"Ougrée",50.6012358,5.5443411,"Luik"
4120,"Ehein",50.5452937,5.4444311,"Luik"
4120,"NeuprÉ",50.5326636,5.4761468,"Luik"
4120,"Rotheux-Rimière",50.5346824,5.4810832,"Luik"
4121,"Neuville-En-Condroz",50.5524877,5.4511519,"Luik"
4122,"Plainevaux",50.5453134,5.5242890,"Luik"
4130,"Esneux",50.5350365,5.5684225,"Luik"
4130,"Tilff",50.5640699,5.5759823,"Luik"
4140,"Dolembreux",50.5360657,5.6328890,"Luik"
4140,"Gomzé-Andoumont",50.5474223,5.6896830,"Luik"
4140,"Rouvreux",50.4896684,5.6501920,"Luik"
4140,"Sprimont",50.5115650,5.6460921,"Luik"
4141,"Louveigné",50.5302309,5.7162168,"Luik"
4160,"Anthisnes",50.4820511,5.5194716,"Luik"
4161,"Villers-Aux-Tours",50.4978813,5.5162168,"Luik"
4162,"Hody",50.4864593,5.5038981,"Luik"
4163,"Tavier",50.4963213,5.4705965,"Luik"
4170,"Comblain-Au-Pont",50.4740721,5.5626210,"Luik"
4171,"Poulseur",50.5087030,5.5785541,"Luik"
4180,"Comblain-Fairon",50.4467427,5.5473277,"Luik"
4180,"Comblain-La-Tour",50.4542848,5.5717044,"Luik"
4180,"Hamoir",50.4384106,5.5492373,"Luik"
4181,"Filot",50.4265400,5.5668000,"Luik"
4190,"FerriÈres",50.4002900,5.6056400,"Luik"
4190,"My",50.4054300,5.5734100,"Luik"
4190,"Vieuxville",50.3937900,5.5495500,"Luik"
4190,"Werbomont",50.3803700,5.6839600,"Luik"
4190,"Xhoris",50.4454900,5.6043600,"Luik"
4210,"Burdinne",50.5841100,5.0764300,"Luik"
4210,"Hannêche",50.5779300,5.0478800,"Luik"
4210,"Lamontzée",50.5844100,5.0925400,"Luik"
4210,"Marneffe",50.5803800,5.1467400,"Luik"
4210,"Oteppe",50.5805489,5.1265557,"Luik"
4217,"HÉron",50.5526795,5.0922925,"Luik"
4217,"Lavoir",50.5502640,5.1196405,"Luik"
4217,"Waret-L'evêque",50.5484795,5.0612138,"Luik"
4218,"Couthuin",50.5314526,5.1224958,"Luik"
4219,"Acosse",50.5927700,5.0465700,"Luik"
4219,"Ambresin",50.6304500,5.0305700,"Luik"
4219,"Meeffe",50.6075000,5.0182100,"Luik"
4219,"Wasseiges",50.6175400,5.0016200,"Luik"
4250,"Boëlhe",50.6821400,5.1664600,"Luik"
4250,"Geer",50.6701762,5.1828092,"Luik"
4250,"Hollogne-Sur-Geer",50.6766000,5.2054100,"Luik"
4250,"Lens-Saint-Servais",50.6635700,5.1558500,"Luik"
4252,"Omal",50.6558400,5.1993700,"Luik"
4253,"Darion",50.6645800,5.1865400,"Luik"
4254,"Ligney",50.6614800,5.1822700,"Luik"
4257,"Berloz",50.6987500,5.2126500,"Luik"
4257,"Corswarem",50.7107800,5.2132400,"Luik"
4257,"Rosoux-Crenwick",50.7074100,5.1894900,"Luik"
4260,"Avennes",50.6294922,5.1127625,"Luik"
4260,"Braives",50.6282300,5.1488100,"Luik"
4260,"Ciplet",50.6183437,5.0926809,"Luik"
4260,"Fallais",50.6102200,5.1703900,"Luik"
4260,"Fumal",50.5866100,5.1831300,"Luik"
4260,"Ville-En-Hesbaye",50.6157563,5.1159028,"Luik"
4261,"Latinne",50.6247500,5.1640100,"Luik"
4263,"Tourinne",50.6390200,5.1745700,"Luik"
4280,"Abolens",50.6730200,5.1488600,"Luik"
4280,"Avernas-Le-Bauduin",50.6942800,5.0786100,"Luik"
4280,"Avin",50.6221500,5.0693200,"Luik"
4280,"Bertrée",50.6952100,5.0913300,"Luik"
4280,"Blehen",50.6643018,5.1225686,"Luik"
4280,"Cras-Avernas",50.6973300,5.1236300,"Luik"
4280,"Crehen",50.6599300,5.0634000,"Luik"
4280,"Grand-Hallet",50.6955500,5.0322200,"Luik"
4280,"Hannut",50.6721500,5.0777600,"Luik"
4280,"Lens-Saint-Remy",50.6543514,5.1331258,"Luik"
4280,"Merdorp",50.6483200,5.0004400,"Luik"
4280,"Moxhe",50.6305700,5.0834600,"Luik"
4280,"Petit-Hallet",50.6875800,5.0172100,"Luik"
4280,"Poucet",50.6758800,5.1165300,"Luik"
4280,"Thisnes",50.6658000,5.0467700,"Luik"
4280,"Trognée",50.6872500,5.1247700,"Luik"
4280,"Villers-Le-Peuplier",50.6562000,5.0958400,"Luik"
4280,"Wansin",50.6789800,5.0190400,"Luik"
4287,"Lincent",50.7128616,5.0305803,"Luik"
4287,"Pellaines",50.7257187,5.0070620,"Luik"
4287,"Racour",50.7396057,5.0289273,"Luik"
4300,"Bettincourt",50.7125100,5.2358400,"Luik"
4300,"Bleret",50.6892900,5.2873400,"Luik"
4300,"Bovenistier",50.6678000,5.2838900,"Luik"
4300,"Grand-Axhe",50.6805500,5.2295800,"Luik"
4300,"Lantremange",50.7117100,5.2956100,"Luik"
4300,"Oleye",50.7138200,5.2811300,"Luik"
4300,"Waremme",50.6975700,5.2555300,"Luik"
4317,"Aineffe",50.6255700,5.2574900,"Luik"
4317,"Borlez",50.6332500,5.2433100,"Luik"
4317,"Celles",50.6541500,5.2461400,"Luik"
4317,"Faimes",50.6618300,5.2600900,"Luik"
4317,"Les Waleffes",50.6377900,5.2232900,"Luik"
4317,"Viemme",50.6467900,5.2722400,"Luik"
4340,"Awans",50.6668610,5.4628633,"Luik"
4340,"Fooz",50.6759853,5.4359267,"Luik"
4340,"Othée",50.7157403,5.4671194,"Luik"
4340,"Villers-L'evêque",50.7044467,5.4395108,"Luik"
4342,"Hognoul",50.6814461,5.4543405,"Luik"
4347,"Fexhe-Le-Haut-Clocher",50.6653330,5.3994597,"Luik"
4347,"Freloux",50.6804933,5.4065984,"Luik"
4347,"Noville",50.6599134,5.3822669,"Luik"
4347,"Roloux",50.6510925,5.3974408,"Luik"
4347,"Voroux-Goreux",50.6548149,5.4291442,"Luik"
4350,"Lamine",50.6890700,5.3347200,"Luik"
4350,"Momalle",50.6856900,5.3758100,"Luik"
4350,"Pousset",50.6947600,5.3042000,"Luik"
4350,"Remicourt",50.6802000,5.3284400,"Luik"
4351,"Hodeige",50.6960700,5.3416700,"Luik"
4357,"Donceel",50.6457700,5.3213800,"Luik"
4357,"Haneffe",50.6379100,5.3204600,"Luik"
4357,"Jeneffe",50.6511100,5.3543400,"Luik"
4357,"Limont",50.6605976,5.3114031,"Luik"
4360,"Bergilers",50.7154300,5.3289700,"Luik"
4360,"Grandville",50.7234100,5.3388100,"Luik"
4360,"Lens-Sur-Geer",50.7211400,5.3509900,"Luik"
4360,"Oreye",50.7317500,5.3577000,"Luik"
4360,"Otrange",50.7360100,5.3785500,"Luik"
4367,"CrisnÉe",50.7173633,5.3977032,"Luik"
4367,"Fize-Le-Marsal",50.7023863,5.3855696,"Luik"
4367,"Kemexhe",50.6973611,5.4075417,"Luik"
4367,"Odeur",50.7064872,5.4164174,"Luik"
4367,"Thys",50.7225445,5.3904320,"Luik"
4400,"Awirs",50.5999117,5.4061097,"Luik"
4400,"Chokier",50.5911345,5.4419320,"Luik"
4400,"FlÉmalle",50.6018700,5.4433500,"Luik"
4400,"Flémalle-Grande",50.6087724,5.4765157,"Luik"
4400,"Flémalle-Haute",50.6001541,5.4459559,"Luik"
4400,"Gleixhe",50.6130146,5.3893727,"Luik"
4400,"Ivoz-Ramet",50.5883864,5.4638963,"Luik"
4400,"Mons-Lez-Liège",50.6233740,5.4558943,"Luik"
4420,"Montegnée",50.6453400,5.5141400,"Luik"
4420,"Saint-Nicolas",50.6292407,5.5321898,"Luik"
4420,"Tilleur",50.6194824,5.5201566,"Luik"
4430,"Ans",50.6602130,5.5265524,"Luik"
4431,"Loncin",50.6662400,5.5052100,"Luik"
4432,"Alleur",50.6743400,5.5133800,"Luik"
4432,"Xhendremael",50.7050200,5.4831000,"Luik"
4450,"Juprelle",50.7096477,5.5267686,"Luik"
4450,"Lantin",50.6885256,5.5246269,"Luik"
4450,"Slins",50.7277297,5.5637966,"Luik"
4451,"Voroux-Lez-Liers",50.6875929,5.5549161,"Luik"
4452,"Paifve",50.7283378,5.5249034,"Luik"
4452,"Wihogne",50.7271304,5.5066908,"Luik"
4453,"Villers-Saint-Siméon",50.7111071,5.5388369,"Luik"
4458,"Fexhe-Slins",50.7200300,5.5695400,"Luik"
4460,"Bierset",50.6550000,5.4509200,"Luik"
4460,"Grâce-Berleur",50.6400100,5.5019000,"Luik"
4460,"GrÂce-Hollogne",50.6341200,5.4756600,"Luik"
4460,"Hollogne-Aux-Pierres",50.6403400,5.4708400,"Luik"
4460,"Horion-Hozémont",50.6283400,5.3796100,"Luik"
4460,"Velroux",50.6429000,5.4243700,"Luik"
4470,"Saint-Georges-Sur-Meuse",50.6000700,5.3575600,"Luik"
4480,"Clermont-Sous-Huy",50.5693910,5.3918142,"Luik"
4480,"Ehein",50.2997581,6.1266116,"Luik"
4480,"Engis",50.5832252,5.4037136,"Luik"
4480,"Hermalle-Sous-Huy",50.5591378,5.3619152,"Luik"
4500,"Ben-Ahin",50.5019819,5.1852407,"Luik"
4500,"Huy",50.5186775,5.2396514,"Luik"
4500,"Tihange",50.5296991,5.2614551,"Luik"
4520,"Antheit",50.5489545,5.2403601,"Luik"
4520,"Bas-Oha",50.5262731,5.1908989,"Luik"
4520,"Huccorgne",50.5672767,5.1655285,"Luik"
4520,"Moha",50.5476918,5.1862090,"Luik"
4520,"Vinalmont",50.5631337,5.2306622,"Luik"
4520,"Wanze",50.5344760,5.2141011,"Luik"
4530,"Fize-Fontaine",50.5851000,5.2830100,"Luik"
4530,"Vaux-Et-Borset",50.6133200,5.2320700,"Luik"
4530,"Vieux-Waleffe",50.6160879,5.2037631,"Luik"
4530,"Villers-Le-Bouillet",50.5699683,5.2662704,"Luik"
4530,"Warnant-Dreye",50.5952300,5.2275300,"Luik"
4537,"Bodegnée",50.5859300,5.3037100,"Luik"
4537,"Chapon-Seraing",50.6084100,5.2690400,"Luik"
4537,"Seraing-Le-Château",50.6213200,5.2982900,"Luik"
4537,"Verlaine",50.6063300,5.3172900,"Luik"
4540,"Amay",50.5482792,5.3096648,"Luik"
4540,"Ampsin",50.5413781,5.2780528,"Luik"
4540,"Flône",50.5575651,5.3360181,"Luik"
4540,"Jehay",50.5724773,5.3247092,"Luik"
4540,"Ombret",50.5421828,5.3332337,"Luik"
4550,"Nandrin",50.5071610,5.4198582,"Luik"
4550,"Saint-Séverin",50.5298269,5.4112136,"Luik"
4550,"Villers-Le-Temple",50.5173291,5.3595062,"Luik"
4550,"Yernée-Fraineux",50.5290790,5.3839140,"Luik"
4557,"Abée",50.4730891,5.3564959,"Luik"
4557,"Fraiture",50.4784330,5.4194689,"Luik"
4557,"Ramelot",50.4669858,5.3331598,"Luik"
4557,"Seny",50.4589883,5.4015811,"Luik"
4557,"Soheit-Tinlot",50.4834221,5.3885701,"Luik"
4557,"Tinlot",50.4777355,5.3788180,"Luik"
4560,"Bois-Et-Borsu",50.3892980,5.3227509,"Luik"
4560,"Clavier",50.4114801,5.3635498,"Luik"
4560,"Les Avins",50.4161066,5.3016015,"Luik"
4560,"Ocquier",50.3956189,5.3937321,"Luik"
4560,"Pailhe",50.4228394,5.2582114,"Luik"
4560,"Terwagne",50.4443430,5.3482649,"Luik"
4570,"Marchin",50.4651700,5.2420400,"Luik"
4570,"Vyle-Et-Tharoul",50.4445000,5.2615200,"Luik"
4577,"Modave",50.4423750,5.3007316,"Luik"
4577,"Outrelouxhe",50.5032627,5.3346305,"Luik"
4577,"Strée-Lez-Huy",50.4931942,5.3218809,"Luik"
4577,"Vierset-Barse",50.4834371,5.2976608,"Luik"
4590,"Ellemelle",50.4675200,5.4443400,"Luik"
4590,"Ouffet",50.4381000,5.4653800,"Luik"
4590,"Warzée",50.4492900,5.4282800,"Luik"
4600,"Lanaye",50.7816616,5.6945353,"Luik"
4600,"Lixhe",50.7567965,5.6793302,"Luik"
4600,"Richelle",50.7136425,5.6952993,"Luik"
4600,"VisÉ",50.7436241,5.6866789,"Luik"
4601,"Argenteau",50.6961555,5.6876046,"Luik"
4602,"Cheratte",50.6837494,5.6707829,"Luik"
4606,"Saint-André",50.6956754,5.7530732,"Luik"
4607,"Berneau",50.7427406,5.7306194,"Luik"
4607,"Bombaye",50.7307281,5.7448822,"Luik"
4607,"Dalhem",50.7205105,5.7331059,"Luik"
4607,"Feneur",50.7042957,5.7149169,"Luik"
4607,"Mortroux",50.7114781,5.7536961,"Luik"
4608,"Neufchâteau",50.7193680,5.7757062,"Luik"
4608,"Warsage",50.7355105,5.7691321,"Luik"
4610,"Bellaire",50.6449882,5.6654339,"Luik"
4610,"Beyne-Heusay",50.6216012,5.6558548,"Luik"
4610,"Queue-Du-Bois",50.6373747,5.6789257,"Luik"
4620,"FlÉron",50.6179541,5.6845374,"Luik"
4621,"Retinne",50.6301336,5.6971829,"Luik"
4623,"Magnée",50.5996569,5.6884335,"Luik"
4624,"Romsée",50.6106080,5.6645040,"Luik"
4630,"Ayeneux",50.6077652,5.7168110,"Luik"
4630,"Micheroux",50.6265063,5.7211700,"Luik"
4630,"Soumagne",50.6162143,5.7372708,"Luik"
4630,"Tignée",50.6512700,5.7020100,"Luik"
4631,"Evegnée",50.6421700,5.7087500,"Luik"
4632,"Cérexhe-Heuseux",50.6541483,5.7264702,"Luik"
4633,"Melen",50.6460486,5.7359996,"Luik"
4650,"Chaineux",50.6316775,5.8344045,"Luik"
4650,"Grand-Rechain",50.6074436,5.8099828,"Luik"
4650,"Herve",50.6317827,5.8425762,"Luik"
4650,"Julémont",50.6860172,5.7713927,"Luik"
4651,"Battice",50.6474662,5.8207169,"Luik"
4652,"Xhendelesse",50.6050929,5.7782579,"Luik"
4653,"Bolland",50.6610700,5.7603700,"Luik"
4654,"Charneux",50.6698339,5.8041681,"Luik"
4670,"BlÉgny",50.6792685,5.7246643,"Luik"
4670,"Mortier",50.6850484,5.7434908,"Luik"
4670,"Trembleur",50.6953980,5.7264581,"Luik"
4671,"Barchon",50.6686600,5.6999200,"Luik"
4671,"Housse",50.6789837,5.6910818,"Luik"
4671,"Saive",50.6530557,5.6858939,"Luik"
4672,"Saint-Remy",50.6954433,5.7044415,"Luik"
4680,"Hermée",50.7079438,5.6184661,"Luik"
4680,"Oupeye",50.7127029,5.6261513,"Luik"
4681,"Hermalle-Sous-Argenteau",50.7112191,5.6800351,"Luik"
4682,"Heure-Le-Romain",50.7313994,5.6332813,"Luik"
4682,"Houtain-Saint-Siméon",50.7398627,5.6118142,"Luik"
4683,"Vivegnis",50.6948109,5.6467328,"Luik"
4684,"Haccourt",50.7303379,5.6688849,"Luik"
4690,"Bassenge",50.7591324,5.6100672,"Luik"
4690,"Boirs",50.7509508,5.5800373,"Luik"
4690,"Eben-Emael",50.7933169,5.6656377,"Luik"
4690,"Glons",50.7520728,5.5450180,"Luik"
4690,"Roclenge-Sur-Geer",50.7569143,5.5953980,"Luik"
4690,"Wonck",50.7669118,5.6358592,"Luik"
4700,"Eupen",50.6133173,6.1011205,"Luik"
4701,"Kettenis",50.6472977,6.0468960,"Luik"
4710,"Lontzen",50.6816693,5.9875637,"Luik"
4711,"Walhorn",50.6746900,6.0454900,"Luik"
4720,"La Calamine",50.7193507,6.0118307,"Luik"
4721,"Neu-Moresnet",50.7160816,6.0213233,"Luik"
4728,"Hergenrath",50.7089534,6.0314237,"Luik"
4730,"Hauset",50.7104323,6.0696188,"Luik"
4730,"Raeren",50.6770198,6.1097331,"Luik"
4731,"Eynatten",50.6921704,6.0834561,"Luik"
4750,"Butgenbach",50.4266339,6.2042885,"Luik"
4750,"Elsenborn",50.4806086,6.2513662,"Luik"
4760,"Bullange",50.3739957,6.3042715,"Luik"
4760,"Manderfeld",50.3302124,6.3412395,"Luik"
4761,"Rocherath",50.4365286,6.3005753,"Luik"
4770,"AmblÈve",50.3542165,6.1694635,"Luik"
4770,"Meyerode",50.3179876,6.1897305,"Luik"
4771,"Heppenbach",50.3627954,6.2185552,"Luik"
4780,"Recht",50.3340631,6.0430930,"Luik"
4780,"Saint-Vith",50.2797224,6.1304560,"Luik"
4782,"Schoenberg",50.2887806,6.2652657,"Luik"
4783,"Lommersweiler",50.2388377,6.1655027,"Luik"
4784,"Crombach",50.2594213,6.0689550,"Luik"
4790,"Burg-Reuland",50.1966077,6.1376625,"Luik"
4790,"Reuland",50.1966077,6.1376625,"Luik"
4791,"Thommen",50.2182100,6.0739100,"Luik"
4800,"Ensival",50.5812596,5.8460072,"Luik"
4800,"Lambermont",50.5904288,5.8323452,"Luik"
4800,"Petit-Rechain",50.6144000,5.8344700,"Luik"
4800,"Polleur",50.5347397,5.8802762,"Luik"
4800,"Verviers",50.5910337,5.8655774,"Luik"
4801,"Stembert",50.5923294,5.8928874,"Luik"
4802,"Heusy",50.5745445,5.8662821,"Luik"
4820,"Dison",50.6125223,5.8534370,"Luik"
4821,"Andrimont",50.6139966,5.8844864,"Luik"
4830,"Limbourg",50.6036651,5.9357239,"Luik"
4831,"Bilstain",50.6243826,5.9198628,"Luik"
4834,"Goé",50.6061874,5.9567645,"Luik"
4837,"Baelen",50.6301763,5.9692046,"Luik"
4837,"Membach",50.6190500,5.9950100,"Luik"
4840,"Welkenraedt",50.6568973,5.9630388,"Luik"
4841,"Henri-Chapelle",50.6691380,5.9271962,"Luik"
4845,"Jalhay",50.5588226,5.9662952,"Luik"
4845,"Sart-Lez-Spa",50.5168580,5.9319544,"Luik"
4850,"Montzen",50.7075790,5.9619403,"Luik"
4850,"Moresnet",50.7211350,5.9889959,"Luik"
4850,"PlombiÈres",50.7193635,5.9635214,"Luik"
4851,"Gemmenich",50.7453476,5.9943856,"Luik"
4851,"Sippenaeken",50.7507270,5.9337213,"Luik"
4852,"Hombourg",50.7233365,5.9211923,"Luik"
4860,"Cornesse",50.5723031,5.7955711,"Luik"
4860,"Pepinster",50.5682638,5.8033087,"Luik"
4860,"Wegnez",50.5792278,5.8166757,"Luik"
4861,"Soiron",50.5918060,5.7904364,"Luik"
4870,"Forêt",50.5835849,5.6998538,"Luik"
4870,"Fraipont",50.5656406,5.7238334,"Luik"
4870,"Nessonvaux",50.5729394,5.7370077,"Luik"
4870,"Trooz",50.5786521,5.6730779,"Luik"
4877,"Olne",50.5900615,5.7465679,"Luik"
4880,"Aubel",50.7021296,5.8592295,"Luik"
4890,"Clermont",50.6590232,5.8845514,"Luik"
4890,"Thimister",50.6541950,5.8640069,"Luik"
4890,"Thimister-Clermont",50.6542116,5.8640147,"Luik"
4900,"Spa",50.4924300,5.8643200,"Luik"
4910,"La Reid",50.4893888,5.7905890,"Luik"
4910,"Polleur",50.5390463,5.8807055,"Luik"
4910,"Theux",50.5350997,5.8141884,"Luik"
4920,"Aywaille",50.4731800,5.6758400,"Luik"
4920,"Ernonheid",50.4033800,5.6663000,"Luik"
4920,"Harzé",50.4409600,5.6665100,"Luik"
4920,"Louveigné",50.4839900,5.7174700,"Luik"
4920,"Sougné-Remouchamps",50.4798700,5.7118500,"Luik"
4950,"Faymonville",50.4027387,6.1408548,"Luik"
4950,"Robertville",50.4545013,6.1221420,"Luik"
4950,"Sourbrodt",50.4789500,6.1117500,"Luik"
4950,"Waimes",50.4148914,6.1115604,"Luik"
4960,"Bellevaux-Ligneuville",50.3906700,6.0057700,"Luik"
4960,"Bevercé",50.4409143,6.0357210,"Luik"
4960,"Malmedy",50.4246396,6.0283276,"Luik"
4970,"Francorchamps",50.4543456,5.9522139,"Luik"
4970,"Stavelot",50.3941099,5.9304135,"Luik"
4980,"Fosse",50.3411966,5.8412377,"Luik"
4980,"Trois-Ponts",50.3528769,5.9177072,"Luik"
4980,"Wanne",50.3550332,5.9216510,"Luik"
4983,"Basse-Bodeux",50.3565744,5.8305234,"Luik"
4987,"Chevron",50.3802778,5.7325146,"Luik"
4987,"La Gleize",50.4112600,5.8491514,"Luik"
4987,"Lorcé",50.4162542,5.7350483,"Luik"
4987,"Rahier",50.3848697,5.7807855,"Luik"
4987,"Stoumont",50.4068434,5.8086125,"Luik"
4990,"Arbrefontaine",50.3027600,5.8354100,"Luik"
4990,"Bra",50.3233900,5.7323000,"Luik"
4990,"Lierneux",50.2848031,5.7950312,"Luik"
5000,"Beez",50.4686653,4.9118340,"Namen"
5000,"Namur",50.4592670,4.8504571,"Namen"
5001,"Belgrade",50.4707019,4.8256487,"Namen"
5002,"Saint-Servais",50.4766054,4.8344548,"Namen"
5003,"Saint-Marc",50.4915149,4.8473250,"Namen"
5004,"Bouge",50.4719872,4.8915392,"Namen"
5012,"Parlement Wallon",50.4608774,4.8678855,"Namen"
5020,"Champion",50.4958176,4.9015766,"Namen"
5020,"Daussoulx",50.5181967,4.8886216,"Namen"
5020,"Flawinne",50.4573800,4.8109600,"Namen"
5020,"Malonne",50.4389600,4.7956600,"Namen"
5020,"Suarlée",50.4819500,4.7788500,"Namen"
5020,"Temploux",50.4852600,4.7543400,"Namen"
5020,"Vedrin",50.5022173,4.8760877,"Namen"
5021,"Boninne",50.4953566,4.9324641,"Namen"
5022,"Cognelée",50.5148464,4.9070712,"Namen"
5024,"Gelbressée",50.5055017,4.9561010,"Namen"
5024,"Marche-Les-Dames",50.4863306,4.9602568,"Namen"
5030,"Beuzet",50.5339100,4.7458400,"Namen"
5030,"Ernage",50.5923601,4.6719178,"Namen"
5030,"Gembloux",50.5742906,4.7016542,"Namen"
5030,"Grand-Manil",50.5570700,4.6754800,"Namen"
5030,"Lonzée",50.5529900,4.7263700,"Namen"
5030,"Sauvenière",50.5806500,4.7234800,"Namen"
5031,"Grand-Leez",50.5837400,4.7746900,"Namen"
5032,"Bossière",50.5180000,4.6957900,"Namen"
5032,"Bothey",50.5204300,4.6489400,"Namen"
5032,"Corroy-Le-Château",50.5387700,4.6627900,"Namen"
5032,"Isnes",50.5059800,4.7282700,"Namen"
5032,"Mazy",50.5104800,4.6726300,"Namen"
5060,"Arsimont",50.4285300,4.6388000,"Namen"
5060,"Auvelais",50.4493800,4.6302400,"Namen"
5060,"Falisolle",50.4177600,4.6208700,"Namen"
5060,"Keumiée",50.4526305,4.5960362,"Namen"
5060,"Moignelée",50.4454200,4.5845500,"Namen"
5060,"Sambreville",50.4467340,4.6307350,"Namen"
5060,"Tamines",50.4335300,4.6081900,"Namen"
5060,"Velaine-Sur-Sambre",50.4674000,4.6140200,"Namen"
5070,"Aisemont",50.4050400,4.6520900,"Namen"
5070,"Fosses-La-Ville",50.3945500,4.6961700,"Namen"
5070,"Le Roux",50.3890000,4.6239800,"Namen"
5070,"Sart-Eustache",50.3754000,4.6025900,"Namen"
5070,"Sart-Saint-Laurent",50.4022400,4.7416900,"Namen"
5070,"Vitrival",50.3985900,4.6595600,"Namen"
5080,"Emines",50.5121200,4.8446900,"Namen"
5080,"La BruyÈre",50.5073930,4.8150906,"Namen"
5080,"Rhisnes",50.5062600,4.8056800,"Namen"
5080,"Villers-Lez-Heest",50.5299800,4.8455800,"Namen"
5080,"Warisoulx",50.5366000,4.8665900,"Namen"
5081,"Bovesse",50.5191700,4.7806100,"Namen"
5081,"Meux",50.5519600,4.8010300,"Namen"
5081,"Saint-Denis-Bovesse",50.5353200,4.7818500,"Namen"
5100,"Dave",50.4143728,4.8877835,"Namen"
5100,"Jambes",50.4563673,4.8718770,"Namen"
5100,"Naninne",50.4185928,4.9239001,"Namen"
5100,"Wépion",50.4212060,4.8633172,"Namen"
5100,"Wierde",50.4260307,4.9509671,"Namen"
5101,"Erpent",50.4516025,4.9050011,"Namen"
5101,"Lives-Sur-Meuse",50.4654959,4.9241044,"Namen"
5101,"Loyers",50.4628570,4.9517789,"Namen"
5140,"Boignée",50.5002400,4.6093800,"Namen"
5140,"Ligny",50.5122800,4.5770200,"Namen"
5140,"Sombreffe",50.5287100,4.5884000,"Namen"
5140,"Tongrinne",50.5155000,4.6253000,"Namen"
5150,"Floreffe",50.4340500,4.7592200,"Namen"
5150,"Floriffoux",50.4519800,4.7716100,"Namen"
5150,"Franière",50.4359200,4.7328000,"Namen"
5150,"Soye",50.4493600,4.7304100,"Namen"
5170,"Arbre",50.3661200,4.8212600,"Namen"
5170,"Bois-De-Villers",50.3901900,4.8240800,"Namen"
5170,"Lesve",50.3768600,4.7779100,"Namen"
5170,"Lustin",50.3782500,4.8987600,"Namen"
5170,"Profondeville",50.3756621,4.8674002,"Namen"
5170,"Rivière",50.3565500,4.8745300,"Namen"
5190,"Balâtre",50.5003106,4.6395677,"Namen"
5190,"Ham-Sur-Sambre",50.4426813,4.6735065,"Namen"
5190,"Jemeppe-Sur-Sambre",50.4630907,4.6786862,"Namen"
5190,"Mornimont",50.4563509,4.7043225,"Namen"
5190,"Moustier-Sur-Sambre",50.4568755,4.6944478,"Namen"
5190,"Onoz",50.4920447,4.6697337,"Namen"
5190,"Saint-Martin",50.5018823,4.6473489,"Namen"
5190,"Spy",50.4796529,4.7042186,"Namen"
5300,"Andenne",50.4911522,5.0964543,"Namen"
5300,"Bonneville",50.4719693,5.0369958,"Namen"
5300,"Coutisse",50.4629612,5.1166532,"Namen"
5300,"Landenne",50.5149815,5.0669512,"Namen"
5300,"Maizeret",50.4596144,4.9790011,"Namen"
5300,"Namêche",50.4719758,4.9945844,"Namen"
5300,"Sclayn",50.4896345,5.0277233,"Namen"
5300,"Seilles",50.5002414,5.0931162,"Namen"
5300,"Thon",50.4633535,5.0145871,"Namen"
5300,"Vezin",50.4958205,5.0087682,"Namen"
5310,"Aische-En-Refail",50.5994800,4.8381900,"Namen"
5310,"Bolinne",50.6008300,4.9294000,"Namen"
5310,"Boneffe",50.6250800,4.9550800,"Namen"
5310,"Branchon",50.6291020,4.9711150,"Namen"
5310,"Dhuy",50.5596400,4.8593000,"Namen"
5310,"EghezÉe",50.5926500,4.9036500,"Namen"
5310,"Hanret",50.5809200,4.9476700,"Namen"
5310,"Leuze",50.5460400,4.9061900,"Namen"
5310,"Liernu",50.5836900,4.8307700,"Namen"
5310,"Longchamps",50.5778700,4.8926200,"Namen"
5310,"Mehaigne",50.5944300,4.8760700,"Namen"
5310,"Noville-Sur-Méhaigne",50.6092400,4.8930800,"Namen"
5310,"Saint-Germain",50.5726600,4.8422000,"Namen"
5310,"Taviers",50.6173300,4.9315400,"Namen"
5310,"Upigny",50.5716300,4.8722300,"Namen"
5310,"Waret-La-Chaussée",50.5428100,4.9264400,"Namen"
5330,"Assesse",50.3777222,4.9421604,"Namen"
5330,"Maillen",50.3772130,4.9707476,"Namen"
5330,"Sart-Bernard",50.4024400,4.9630800,"Namen"
5332,"Crupet",50.3500900,4.9612400,"Namen"
5333,"Sorinne-La-Longue",50.3893000,5.0255100,"Namen"
5334,"Florée",50.3742000,5.0688500,"Namen"
5336,"Courrière",50.3799400,4.9853200,"Namen"
5340,"Faulx-Les-Tombes",50.4269300,5.0208900,"Namen"
5340,"Gesves",50.4024613,5.0755536,"Namen"
5340,"Haltinne",50.4511000,5.0750100,"Namen"
5340,"Mozet",50.4442500,4.9853700,"Namen"
5340,"Sorée",50.3973972,5.1200129,"Namen"
5350,"Evelette",50.4118900,5.1736400,"Namen"
5350,"Ohey",50.4145401,5.1673861,"Namen"
5351,"Haillot",50.4421500,5.1542000,"Namen"
5352,"Perwez-Haillot",50.4521300,5.1717400,"Namen"
5353,"Goesnes",50.4400100,5.2209400,"Namen"
5354,"Jallet",50.4432800,5.1833800,"Namen"
5360,"Hamois",50.3453749,5.0922322,"Namen"
5360,"Natoye",50.3430100,5.0580400,"Namen"
5361,"Mohiville",50.3181200,5.1924000,"Namen"
5361,"Scy",50.3047900,5.2071800,"Namen"
5362,"Achet",50.3329900,5.1749300,"Namen"
5363,"Emptinne",50.3254300,5.1230900,"Namen"
5364,"Schaltin",50.3589400,5.1245200,"Namen"
5370,"Barvaux-Condroz",50.3289100,5.2609000,"Namen"
5370,"Flostoy",50.3888599,5.1838818,"Namen"
5370,"Havelange",50.3647074,5.2395547,"Namen"
5370,"Jeneffe",50.3540700,5.2400500,"Namen"
5370,"Porcheresse",50.3401200,5.2419500,"Namen"
5370,"Verlée",50.3678400,5.2793600,"Namen"
5372,"Méan",50.3632300,5.3363400,"Namen"
5374,"Maffe",50.3535100,5.3114000,"Namen"
5376,"Miécret",50.3668751,5.2486422,"Namen"
5377,"Baillonville",50.2899325,5.3386650,"Namen"
5377,"Bonsin",50.3740147,5.3826276,"Namen"
5377,"Heure",50.2942459,5.2964444,"Namen"
5377,"Hogne",50.2490867,5.2797819,"Namen"
5377,"Nettinne",50.2907723,5.2588027,"Namen"
5377,"Noiseux",50.2991028,5.3746071,"Namen"
5377,"Sinsin",50.2748559,5.2547880,"Namen"
5377,"Somme-Leuze",50.3399215,5.3700866,"Namen"
5377,"Waillet",50.2604353,5.3045240,"Namen"
5380,"Bierwart",50.5558200,5.0362800,"Namen"
5380,"Cortil-Wodon",50.5676700,4.9568900,"Namen"
5380,"Fernelmont",50.5521080,4.9855088,"Namen"
5380,"Forville",50.5739100,4.9982800,"Namen"
5380,"Franc-Waret",50.5208100,4.9814100,"Namen"
5380,"Hemptinne",50.6032700,4.9883800,"Namen"
5380,"Hingeon",50.5254500,5.0068700,"Namen"
5380,"Marchovelette",50.5228500,4.9414900,"Namen"
5380,"Noville-Les-Bois",50.5567600,4.9841900,"Namen"
5380,"Pontillas",50.5490900,5.0210400,"Namen"
5380,"Tillier",50.5445900,4.9458100,"Namen"
5500,"Anseremme",50.2396000,4.8995100,"Namen"
5500,"Bouvignes-Sur-Meuse",50.2721114,4.8992600,"Namen"
5500,"Dinant",50.2340362,4.9169434,"Namen"
5500,"Dréhance",50.2370200,4.9440600,"Namen"
5500,"Falmagne",50.1999538,4.8977622,"Namen"
5500,"Falmignoul",50.2054304,4.8926759,"Namen"
5500,"Furfooz",50.2239409,4.9588076,"Namen"
5501,"Lisogne",50.2808581,4.9710519,"Namen"
5502,"Thynes",50.2795875,4.9871679,"Namen"
5503,"Sorinnes",50.2592464,4.9789243,"Namen"
5504,"Foy-Notre-Dame",50.2469536,4.9898697,"Namen"
5520,"Anthée",50.2400205,4.7612111,"Namen"
5520,"Onhaye",50.2425159,4.8379125,"Namen"
5521,"Serville",50.2501038,4.7806100,"Namen"
5522,"Falaen",50.2789650,4.7936119,"Namen"
5523,"Sommière",50.2737609,4.8428128,"Namen"
5523,"Weillen",50.2605516,4.8251335,"Namen"
5524,"Gerin",50.2460666,4.8161879,"Namen"
5530,"Dorinne",50.3150100,4.9758800,"Namen"
5530,"Durnal",50.3363000,4.9866200,"Namen"
5530,"Evrehailles",50.3204600,4.9120600,"Namen"
5530,"Godinne",50.3478800,4.8732500,"Namen"
5530,"Houx",50.3017300,4.8983400,"Namen"
5530,"Mont",50.3533500,4.9029100,"Namen"
5530,"Purnode",50.3121800,4.9440300,"Namen"
5530,"Spontin",50.3223300,5.0057500,"Namen"
5530,"Yvoir",50.3269678,4.8778583,"Namen"
5537,"AnhÉe",50.3106400,4.8782900,"Namen"
5537,"Annevoie-Rouillon",50.3473800,4.8488200,"Namen"
5537,"Bioul",50.3311200,4.7961000,"Namen"
5537,"Denée",50.3186200,4.7522300,"Namen"
5537,"Haut-Le-Wastia",50.3059700,4.8429300,"Namen"
5537,"Sosoye",50.2951800,4.7818300,"Namen"
5537,"Warnant",50.3228400,4.8444000,"Namen"
5540,"HastiÈre",50.2127777,4.8080740,"Namen"
5540,"Hastière-Lavaux",50.2183000,4.8245500,"Namen"
5540,"Hermeton-Sur-Meuse",50.1977600,4.8167200,"Namen"
5540,"Waulsort",50.2036200,4.8662100,"Namen"
5541,"Hastière-Par-Delà",50.2147900,4.8290400,"Namen"
5542,"Blaimont",50.1919700,4.8429500,"Namen"
5543,"Heer",50.1634700,4.8320800,"Namen"
5544,"Agimont",50.1657300,4.7959400,"Namen"
5550,"Alle",49.8420224,4.9696522,"Namen"
5550,"Bagimont",49.8241864,4.8751812,"Namen"
5550,"Bohan",49.8635093,4.8853198,"Namen"
5550,"Chairière",49.8620429,4.9511929,"Namen"
5550,"Laforet",49.8632092,4.9299586,"Namen"
5550,"Membre",49.8657061,4.9019226,"Namen"
5550,"Mouzaive",49.8537900,4.9631800,"Namen"
5550,"Nafraiture",49.9108760,4.9174164,"Namen"
5550,"Orchimont",49.8936202,4.9282121,"Namen"
5550,"Pussemange",49.8112700,4.8683500,"Namen"
5550,"Sugny",49.8143846,4.9019318,"Namen"
5550,"Vresse-Sur-Semois",49.8725882,4.9326558,"Namen"
5555,"Baillamont",49.8994166,5.0264170,"Namen"
5555,"Bellefontaine",49.9176070,4.9726249,"Namen"
5555,"BiÈvre",49.9414154,5.0165882,"Namen"
5555,"Cornimont",49.8622424,4.9983726,"Namen"
5555,"Graide",49.9514860,5.0661187,"Namen"
5555,"Gros-Fays",49.8704212,4.9831444,"Namen"
5555,"Monceau-En-Ardenne",49.9057594,4.9877688,"Namen"
5555,"Naomé",49.9220528,5.0892790,"Namen"
5555,"Oizy",49.8936411,5.0091739,"Namen"
5555,"Petit-Fays",49.9020888,4.9686731,"Namen"
5560,"Ciergnon",50.1676470,5.0881633,"Namen"
5560,"Finnevaux",50.1580053,4.9441390,"Namen"
5560,"Houyet",50.1694226,4.9798922,"Namen"
5560,"Hulsonniaux",50.2013267,4.9465427,"Namen"
5560,"Mesnil-Eglise",50.1649400,4.9634900,"Namen"
5560,"Mesnil-Saint-Blaise",50.1688094,4.8850580,"Namen"
5561,"Celles",50.2303800,5.0057628,"Namen"
5562,"Custinne",50.2109877,5.0490632,"Namen"
5563,"Hour",50.1617078,5.0403821,"Namen"
5564,"Wanlin",50.1595134,5.0620298,"Namen"
5570,"Baronville",50.1271366,4.9443786,"Namen"
5570,"Beauraing",50.1003926,4.9059609,"Namen"
5570,"Dion",50.1177827,4.8891263,"Namen"
5570,"Felenne",50.0681342,4.8491337,"Namen"
5570,"Feschaux",50.1511238,4.9148950,"Namen"
5570,"Honnay",50.0816488,5.0393176,"Namen"
5570,"Javingue",50.1022158,4.9190727,"Namen"
5570,"Vonêche",50.0614965,4.9780885,"Namen"
5570,"Wancennes",50.0917430,4.9616119,"Namen"
5570,"Winenne",50.0967777,4.8939936,"Namen"
5571,"Wiesme",50.1484609,4.9773685,"Namen"
5572,"Focant",50.1317614,5.0379324,"Namen"
5573,"Martouzin-Neuville",50.1173860,5.0055552,"Namen"
5574,"Pondrôme",50.0988595,5.0101680,"Namen"
5575,"Bourseigne-Neuve",50.0248700,4.8548600,"Namen"
5575,"Bourseigne-Vieille",50.0221200,4.8702400,"Namen"
5575,"Gedinne",49.9808100,4.9370700,"Namen"
5575,"Houdremont",49.9414800,4.9442600,"Namen"
5575,"Louette-Saint-Denis",49.9583700,4.9578600,"Namen"
5575,"Louette-Saint-Pierre",49.9605400,4.9274800,"Namen"
5575,"Malvoisin",50.0110700,4.9623900,"Namen"
5575,"Patignies",50.0000300,4.9513000,"Namen"
5575,"Rienne",49.9923900,4.8844600,"Namen"
5575,"Sart-Custinne",50.0014700,4.9167500,"Namen"
5575,"Vencimont",50.0316900,4.9206300,"Namen"
5575,"Willerzie",49.9877800,4.8508300,"Namen"
5576,"Froidfontaine",50.0595602,4.9997173,"Namen"
5580,"Ave-Et-Auffe",50.1127200,5.1424600,"Namen"
5580,"Buissonville",50.2164000,5.2018600,"Namen"
5580,"Eprave",50.1439900,5.1591300,"Namen"
5580,"Han-Sur-Lesse",50.1254300,5.1875600,"Namen"
5580,"Jemelle",50.1625000,5.2662300,"Namen"
5580,"Lavaux-Saint-Anne",50.1152632,5.0932728,"Namen"
5580,"Lessive",50.1392100,5.1466200,"Namen"
5580,"Mont-Gauthier",50.2102900,5.1227300,"Namen"
5580,"Rochefort",50.1596036,5.2221665,"Namen"
5580,"Villers-Sur-Lesse",50.1535200,5.1136700,"Namen"
5580,"Wavreille",50.1210400,5.2484800,"Namen"
5589,"Jemelle",50.1357728,5.2796237,"Namen"
5590,"Achêne",50.2666792,5.0456342,"Namen"
5590,"Braibant",50.3131545,5.0606598,"Namen"
5590,"Chevetogne",50.2230794,5.1217844,"Namen"
5590,"Ciney",50.2956773,5.1008307,"Namen"
5590,"Conneux",50.2500686,5.0596284,"Namen"
5590,"Haversin",50.2491900,5.1957100,"Namen"
5590,"Leignon",50.2677216,5.1098975,"Namen"
5590,"Pessoux",50.2830932,5.1709610,"Namen"
5590,"Serinchamps",50.2309395,5.2289113,"Namen"
5590,"Sovet",50.2964987,5.0364195,"Namen"
5600,"Fagnolle",50.1049300,4.5608300,"Namen"
5600,"Franchimont",50.1887500,4.6282400,"Namen"
5600,"Jamagne",50.2173200,4.5308100,"Namen"
5600,"Jamiolle",50.2098800,4.5066600,"Namen"
5600,"Merlemont",50.1764500,4.6111000,"Namen"
5600,"Neuville",50.1724900,4.5145200,"Namen"
5600,"Omezée",50.1926700,4.7017400,"Namen"
5600,"Philippeville",50.1958462,4.5430358,"Namen"
5600,"Roly",50.1359100,4.5373600,"Namen"
5600,"Romedenne",50.1711300,4.6987000,"Namen"
5600,"Samart",50.1782100,4.5341700,"Namen"
5600,"Sart-En-Fagne",50.1587000,4.6220100,"Namen"
5600,"Sautour",50.1701800,4.5604300,"Namen"
5600,"Surice",50.1824900,4.7001700,"Namen"
5600,"Villers-En-Fagne",50.1472100,4.5856600,"Namen"
5600,"Villers-Le-Gambon",50.1912900,4.6094400,"Namen"
5600,"Vodecée",50.1979600,4.5930800,"Namen"
5620,"Corenne",50.2522700,4.6802100,"Namen"
5620,"Flavion",50.2496000,4.7182400,"Namen"
5620,"Florennes",50.2451448,4.6468567,"Namen"
5620,"Hemptinne-Lez-Florennes",50.2451448,4.6468567,"Namen"
5620,"Morville",50.2304700,4.7418600,"Namen"
5620,"Rosée",50.2330700,4.6895900,"Namen"
5620,"Saint-Aubin",50.2485100,4.5765700,"Namen"
5621,"Hanzinelle",50.2957100,4.5598900,"Namen"
5621,"Hanzinne",50.3129400,4.5454700,"Namen"
5621,"Morialmé",50.2749800,4.5659300,"Namen"
5621,"Thy-Le-Baudouin",50.2961900,4.5229600,"Namen"
5630,"Cerfontaine",50.1514001,4.3847036,"Namen"
5630,"Daussois",50.2195367,4.4563959,"Namen"
5630,"Senzeille",50.1768040,4.4646004,"Namen"
5630,"Silenrieux",50.2245931,4.4121787,"Namen"
5630,"Soumoy",50.1899126,4.4382183,"Namen"
5630,"Villers-Deux-Eglises",50.1899091,4.4824262,"Namen"
5640,"Biesme",50.3398700,4.6102400,"Namen"
5640,"Biesmerée",50.2974000,4.6800500,"Namen"
5640,"Graux",50.3250100,4.7197200,"Namen"
5640,"Mettet",50.3174893,4.6464726,"Namen"
5640,"Oret",50.3020600,4.6157400,"Namen"
5640,"Saint-Gérard",50.3459700,4.7407000,"Namen"
5641,"Furnaux",50.3080300,4.7049700,"Namen"
5644,"Ermeton-Sur-Biert",50.2968900,4.7190600,"Namen"
5646,"Stave",50.2800200,4.6592400,"Namen"
5650,"Castillon",50.2466601,4.3523863,"Namen"
5650,"Chastrès",50.2679644,4.4596788,"Namen"
5650,"Clermont",50.2603112,4.3171266,"Namen"
5650,"Fontenelle",50.2479938,4.3837031,"Namen"
5650,"Fraire",50.2596787,4.5084637,"Namen"
5650,"Pry",50.2710178,4.4304388,"Namen"
5650,"Vogenée",50.2404180,4.4526070,"Namen"
5650,"Walcourt",50.2537328,4.4267048,"Namen"
5650,"Yves-Gomezée",50.2390518,4.4936392,"Namen"
5651,"Berzée",50.2886700,4.4015100,"Namen"
5651,"Gourdinne",50.2900400,4.4578000,"Namen"
5651,"Laneffe",50.2774300,4.4909000,"Namen"
5651,"Rognée",50.2671200,4.3901100,"Namen"
5651,"Somzée",50.2951700,4.4833600,"Namen"
5651,"Tarcienne",50.3116000,4.4963700,"Namen"
5651,"Thy-Le-Château",50.2807700,4.4326500,"Namen"
5660,"Aublain",50.0682518,4.4087076,"Namen"
5660,"Boussu-En-Fagne",50.0758726,4.4713875,"Namen"
5660,"Brûly",49.9686542,4.5275589,"Namen"
5660,"Brûly-De-Pesche",50.0016768,4.4649941,"Namen"
5660,"Couvin",50.0519700,4.4945700,"Namen"
5660,"Cul-Des-Sarts",49.9625539,4.4547813,"Namen"
5660,"Dailly",50.0579064,4.4359678,"Namen"
5660,"Frasnes",50.0772664,4.5087651,"Namen"
5660,"Gonrieux",50.0361913,4.4262251,"Namen"
5660,"Mariembourg",50.0947687,4.5218479,"Namen"
5660,"Pesche",50.0423072,4.4586142,"Namen"
5660,"Petigny",50.0586880,4.5319453,"Namen"
5660,"Petite-Chapelle",49.9499922,4.5089898,"Namen"
5660,"Presgaux",50.0248577,4.4197205,"Namen"
5670,"Dourbes",50.0916165,4.5919434,"Namen"
5670,"Le Mesnil",50.0313519,4.6716440,"Namen"
5670,"Mazée",50.1010872,4.6958496,"Namen"
5670,"Nismes",50.0748018,4.5483364,"Namen"
5670,"Oignies-En-Thiérache",50.0238633,4.6392754,"Namen"
5670,"Olloy-Sur-Viroin",50.0720497,4.6074520,"Namen"
5670,"Treignes",50.0926670,4.6708276,"Namen"
5670,"Vierves-Sur-Viroin",50.0802842,4.6353180,"Namen"
5670,"Viroinval",50.0714722,4.6059942,"Namen"
5680,"Doische",50.1362261,4.7461199,"Namen"
5680,"Gimnée",50.1314900,4.7092500,"Namen"
5680,"Gochenée",50.1838510,4.7599339,"Namen"
5680,"Matagne-La-Grande",50.1208100,4.6114600,"Namen"
5680,"Matagne-La-Petite",50.1168400,4.6380000,"Namen"
5680,"Niverlée",50.1180600,4.6998500,"Namen"
5680,"Romerée",50.1358500,4.6753800,"Namen"
5680,"Soulme",50.1887300,4.7373500,"Namen"
5680,"Vaucelles",50.1128600,4.7434500,"Namen"
5680,"Vodelée",50.1724500,4.7323200,"Namen"
6000,"Charleroi",50.4108998,4.4446709,"Henegouwen"
6001,"Marcinelle",50.4001435,4.4330445,"Henegouwen"
6010,"Couillet",50.3914084,4.4589418,"Henegouwen"
6020,"Dampremy",50.4171274,4.4308155,"Henegouwen"
6030,"Goutroux",50.4068438,4.3607435,"Henegouwen"
6030,"Marchienne-Au-Pont",50.4055222,4.3957235,"Henegouwen"
6031,"Monceau-Sur-Sambre",50.4166487,4.3763590,"Henegouwen"
6032,"Mont-Sur-Marchienne",50.3886584,4.4054580,"Henegouwen"
6040,"Jumet",50.4427249,4.4370311,"Henegouwen"
6041,"Gosselies",50.4689729,4.4322409,"Henegouwen"
6042,"Lodelinsart",50.4315093,4.4471800,"Henegouwen"
6043,"Ransart",50.4617198,4.4760083,"Henegouwen"
6044,"Roux",50.4411759,4.3859913,"Henegouwen"
6060,"Gilly",50.4240349,4.4785997,"Henegouwen"
6061,"Montignies-Sur-Sambre",50.4018544,4.4777803,"Henegouwen"
6099,"Charleroi X",50.3845193,4.4636041,"Henegouwen"
6110,"Montigny-Le-Tilleul",50.3744413,4.3779578,"Henegouwen"
6111,"Landelies",50.3798000,4.3507500,"Henegouwen"
6120,"Cour-Sur-Heure",50.3002201,4.3894514,"Henegouwen"
6120,"Ham-Sur-Heure",50.3221203,4.3880774,"Henegouwen"
6120,"Jamioulx",50.3528183,4.4127538,"Henegouwen"
6120,"Marbaix",50.3298860,4.3698110,"Henegouwen"
6120,"Nalinnes",50.3241156,4.4465124,"Henegouwen"
6140,"Fontaine-L'evÊque",50.4100558,4.3249526,"Henegouwen"
6141,"Forchies-La-Marche",50.4366400,4.3203600,"Henegouwen"
6142,"Leernes",50.3982100,4.3321700,"Henegouwen"
6150,"Anderlues",50.4060400,4.2839400,"Henegouwen"
6180,"Courcelles",50.4577042,4.3662504,"Henegouwen"
6181,"Gouy-Lez-Piéton",50.4908073,4.3342955,"Henegouwen"
6182,"Souvret",50.4506298,4.3497084,"Henegouwen"
6183,"Trazegnies",50.4626925,4.3301766,"Henegouwen"
6200,"Bouffioulx",50.3907200,4.5163500,"Henegouwen"
6200,"ChÂtelet",50.4061000,4.5278600,"Henegouwen"
6200,"Châtelineau",50.4153300,4.5198600,"Henegouwen"
6210,"Frasnes-Lez-Gosselies",50.5314655,4.4461637,"Henegouwen"
6210,"Les Bons Villers",50.5427462,4.4476802,"Henegouwen"
6210,"Rèves",50.5377515,4.4144975,"Henegouwen"
6210,"Villers-Perwin",50.5262517,4.4780447,"Henegouwen"
6210,"Wayaux",50.4899237,4.4736079,"Henegouwen"
6211,"Mellet",50.5050113,4.4850788,"Henegouwen"
6220,"Fleurus",50.4771076,4.5363885,"Henegouwen"
6220,"Heppignies",50.4845000,4.4957500,"Henegouwen"
6220,"Lambusart",50.4545300,4.5533200,"Henegouwen"
6220,"Wangenies",50.4795700,4.5198600,"Henegouwen"
6221,"Saint-Amand",50.5063700,4.5498600,"Henegouwen"
6222,"Brye",50.5239700,4.5580900,"Henegouwen"
6223,"Wagnelée",50.5230100,4.5337100,"Henegouwen"
6224,"Wanfercée-Baulet",50.4727400,4.5878300,"Henegouwen"
6230,"Buzet",50.5381032,4.3667175,"Henegouwen"
6230,"Obaix",50.5424526,4.3175513,"Henegouwen"
6230,"Pont-À-Celles",50.5135550,4.3581617,"Henegouwen"
6230,"Thiméon",50.4853430,4.4297958,"Henegouwen"
6230,"Viesville",50.4897213,4.4088253,"Henegouwen"
6238,"Liberchies",50.5138157,4.4215203,"Henegouwen"
6238,"Luttre",50.5097805,4.3914653,"Henegouwen"
6240,"Farciennes",50.4299400,4.5415000,"Henegouwen"
6240,"Pironchamps",50.4324843,4.5364464,"Henegouwen"
6250,"Aiseau",50.4111400,4.5864400,"Henegouwen"
6250,"Aiseau-Presles",50.4100045,4.5866980,"Henegouwen"
6250,"Pont-De-Loup",50.4161900,4.5454700,"Henegouwen"
6250,"Presles",50.3839100,4.5786600,"Henegouwen"
6250,"Roselies",50.4297800,4.5717900,"Henegouwen"
6280,"Acoz",50.3585800,4.5339100,"Henegouwen"
6280,"Gerpinnes",50.3373282,4.5277925,"Henegouwen"
6280,"Gougnies",50.3552000,4.5752800,"Henegouwen"
6280,"Joncret",50.3534400,4.5133300,"Henegouwen"
6280,"Loverval",50.3747000,4.4737000,"Henegouwen"
6280,"Villers-Poterie",50.3536300,4.5490500,"Henegouwen"
6440,"Boussu-Lez-Walcourt",50.2278614,4.3780579,"Henegouwen"
6440,"Fourbechies",50.1636881,4.3107812,"Henegouwen"
6440,"Froidchapelle",50.1500253,4.3282168,"Henegouwen"
6440,"Vergnies",50.1988476,4.3047818,"Henegouwen"
6441,"Erpion",50.2115372,4.3555674,"Henegouwen"
6460,"Bailièvre",50.0691900,4.2384400,"Henegouwen"
6460,"Chimay",50.0844529,4.2660214,"Henegouwen"
6460,"Robechies",50.0727500,4.2772500,"Henegouwen"
6460,"Saint-Remy",50.0453800,4.2919300,"Henegouwen"
6460,"Salles",50.0554400,4.2446300,"Henegouwen"
6460,"Villers-La-Tour",50.0360100,4.2613100,"Henegouwen"
6461,"Virelles",50.0658200,4.3352600,"Henegouwen"
6462,"Vaulx-Lez-Chimay",50.0611800,4.3648700,"Henegouwen"
6463,"Lompret",50.0640900,4.3783900,"Henegouwen"
6464,"Baileux",50.0287100,4.3760500,"Henegouwen"
6464,"Bourlers",50.0271600,4.3410000,"Henegouwen"
6464,"Forges",50.0257600,4.3279200,"Henegouwen"
6464,"L'escaillère",49.9453667,4.4309752,"Henegouwen"
6464,"Rièzes",49.9591400,4.3689100,"Henegouwen"
6470,"Grandrieu",50.2007845,4.1720392,"Henegouwen"
6470,"Montbliart",50.1344705,4.2240647,"Henegouwen"
6470,"Rance",50.1433700,4.2691300,"Henegouwen"
6470,"Sautin",50.1636283,4.2257553,"Henegouwen"
6470,"Sivry",50.1660176,4.1820860,"Henegouwen"
6470,"Sivry-Rance",50.1699509,4.1813855,"Henegouwen"
6500,"Barbençon",50.2216018,4.2843778,"Henegouwen"
6500,"Beaumont",50.2190423,4.2497858,"Henegouwen"
6500,"Leugnies",50.2230128,4.1975122,"Henegouwen"
6500,"Leval-Chaudeville",50.2355400,4.2094900,"Henegouwen"
6500,"Renlies",50.1914031,4.2664251,"Henegouwen"
6500,"Solre-Saint-Géry",50.2151129,4.2439166,"Henegouwen"
6500,"Thirimont",50.2611798,4.2357279,"Henegouwen"
6511,"Strée",50.2750402,4.2888150,"Henegouwen"
6530,"Leers-Et-Fosteau",50.3044451,4.2457958,"Henegouwen"
6530,"Thuin",50.3414098,4.2928918,"Henegouwen"
6531,"Biesme-Sous-Thuin",50.3220429,4.3087831,"Henegouwen"
6532,"Ragnies",50.3085551,4.2841508,"Henegouwen"
6533,"Biercée",50.3245498,4.2594865,"Henegouwen"
6534,"Gozée",50.3334575,4.3516140,"Henegouwen"
6536,"Donstiennes",50.2864402,4.3121002,"Henegouwen"
6536,"Thuillies",50.3003425,4.3309528,"Henegouwen"
6540,"Lobbes",50.3682434,4.2662585,"Henegouwen"
6540,"Mont-Sainte-Geneviève",50.3722603,4.2365499,"Henegouwen"
6542,"Sars-La-Buissière",50.3397381,4.2098006,"Henegouwen"
6543,"Bienne-Lez-Happart",50.3521841,4.2161850,"Henegouwen"
6560,"Bersillies-L'abbaye",50.2630353,4.1490501,"Henegouwen"
6560,"Erquelinnes",50.3073558,4.1113839,"Henegouwen"
6560,"Grand-Reng",50.3306631,4.0747949,"Henegouwen"
6560,"Hantes-Wihéries",50.3053426,4.1778621,"Henegouwen"
6560,"Montignies-Saint-Christophe",50.2822050,4.1914995,"Henegouwen"
6560,"Solre-Sur-Sambre",50.3071512,4.1578836,"Henegouwen"
6567,"Fontaine-Valmont",50.3180022,4.2155052,"Henegouwen"
6567,"Labuissière",50.3158540,4.1854165,"Henegouwen"
6567,"Merbes-Le-ChÂteau",50.3244185,4.1645212,"Henegouwen"
6567,"Merbes-Sainte-Marie",50.3557862,4.1708963,"Henegouwen"
6590,"Momignies",50.0310150,4.1789941,"Henegouwen"
6591,"Macon",50.0506200,4.2091200,"Henegouwen"
6592,"Monceau-Imbrechies",50.0379600,4.2277300,"Henegouwen"
6593,"Macquenoise",49.9755900,4.1786200,"Henegouwen"
6594,"Beauwelz",50.0140100,4.1565100,"Henegouwen"
6596,"Forge-Philippe",49.9668700,4.2529900,"Henegouwen"
6596,"Seloignes",50.0152500,4.2561300,"Henegouwen"
6600,"Bastogne",50.0005973,5.7152666,"Luxemburg"
6600,"Longvilly",50.0248837,5.8364836,"Luxemburg"
6600,"Noville",50.0637281,5.7607706,"Luxemburg"
6600,"Villers-La-Bonne-Eau",49.9340321,5.7481956,"Luxemburg"
6600,"Wardin",49.9911002,5.7882474,"Luxemburg"
6630,"Martelange",49.8324009,5.7402041,"Luxemburg"
6637,"Fauvillers",49.8515620,5.6627735,"Luxemburg"
6637,"Hollange",49.9064911,5.6888102,"Luxemburg"
6637,"Tintange",49.8787550,5.7515418,"Luxemburg"
6640,"Hompré",49.9443952,5.6869659,"Luxemburg"
6640,"Morhet",49.9633899,5.5841583,"Luxemburg"
6640,"Nives",49.9091097,5.6069934,"Luxemburg"
6640,"Sibret",49.9706602,5.6341847,"Luxemburg"
6640,"Vaux-Lez-Rosières",49.9125000,5.5677000,"Luxemburg"
6640,"Vaux-Sur-SÛre",49.9444556,5.6202645,"Luxemburg"
6642,"Juseret",49.8797422,5.5492587,"Luxemburg"
6660,"Houffalize",50.1419014,5.6912202,"Luxemburg"
6660,"Nadrin",50.1590020,5.6827858,"Luxemburg"
6661,"Mont",50.1532229,5.7695926,"Luxemburg"
6661,"Tailles",50.2265221,5.7466501,"Luxemburg"
6662,"Tavigny",50.1088963,5.8393883,"Luxemburg"
6663,"Mabompré",50.0989674,5.7403204,"Luxemburg"
6666,"Wibrin",50.1661241,5.7175372,"Luxemburg"
6670,"Gouvy",50.1457074,5.9245645,"Luxemburg"
6670,"Limerlé",50.1572636,5.9243825,"Luxemburg"
6671,"Bovigny",50.2250817,5.9190550,"Luxemburg"
6672,"Beho",50.2196586,5.9980109,"Luxemburg"
6673,"Cherain",50.1805372,5.8653043,"Luxemburg"
6674,"Montleban",50.2120826,5.8376462,"Luxemburg"
6680,"Amberloup",50.0317221,5.5296068,"Luxemburg"
6680,"Sainte-Ode",50.0199719,5.5480905,"Luxemburg"
6680,"Tillet",50.0104453,5.5296828,"Luxemburg"
6681,"Lavacherie",50.0528654,5.5100095,"Luxemburg"
6686,"Flamierge",50.0335764,5.6043762,"Luxemburg"
6687,"Bertogne",50.0908293,5.6808856,"Luxemburg"
6688,"Longchamps",50.0535609,5.6908206,"Luxemburg"
6690,"Bihain",50.2380618,5.8087170,"Luxemburg"
6690,"Vielsalm",50.2517425,5.8711513,"Luxemburg"
6692,"Petit-Thier",50.3077974,5.9676006,"Luxemburg"
6698,"Grand-Halleux",50.3260048,5.9066265,"Luxemburg"
6700,"Arlon",49.6851364,5.8104804,"Luxemburg"
6700,"Bonnert",49.7108981,5.8187693,"Luxemburg"
6700,"Heinsch",49.6995172,5.7464653,"Luxemburg"
6700,"Toernich",49.6524910,5.7791223,"Luxemburg"
6704,"Guirsch",49.7098711,5.8286286,"Luxemburg"
6706,"Autelbas",49.6480677,5.8624158,"Luxemburg"
6717,"Attert",49.7506889,5.7865368,"Luxemburg"
6717,"Nobressart",49.7399967,5.7178818,"Luxemburg"
6717,"Nothomb",49.7723268,5.7885145,"Luxemburg"
6717,"Thiaumont",49.7153956,5.7307767,"Luxemburg"
6717,"Tontelange",49.7259512,5.8098272,"Luxemburg"
6720,"Habay",49.7267434,5.6634857,"Luxemburg"
6720,"Habay-La-Neuve",49.7280718,5.6460452,"Luxemburg"
6720,"Hachy",49.7018218,5.6804220,"Luxemburg"
6721,"Anlier",49.7718846,5.6208137,"Luxemburg"
6723,"Habay-La-Vieille",49.7234933,5.6192831,"Luxemburg"
6724,"Houdemont",49.7188508,5.5840477,"Luxemburg"
6724,"Rulles",49.7184613,5.5596208,"Luxemburg"
6730,"Bellefontaine",49.6639401,5.4964735,"Luxemburg"
6730,"Rossignol",49.7175007,5.4856597,"Luxemburg"
6730,"Saint-Vincent",49.6772976,5.4757436,"Luxemburg"
6730,"Tintigny",49.6833444,5.5131279,"Luxemburg"
6740,"Etalle",49.6694372,5.5779600,"Luxemburg"
6740,"Sainte-Marie-Sur-Semois",49.6711700,5.5635800,"Luxemburg"
6740,"Villers-Sur-Semois",49.6984089,5.5598847,"Luxemburg"
6741,"Vance",49.6713167,5.6658379,"Luxemburg"
6742,"Chantemelle",49.6529102,5.6526951,"Luxemburg"
6743,"Buzenol",49.6456653,5.5953405,"Luxemburg"
6747,"Châtillon",49.6248000,5.6965700,"Luxemburg"
6747,"Meix-Le-Tige",49.6170900,5.7206900,"Luxemburg"
6747,"Saint-LÉger",49.6119564,5.6566551,"Luxemburg"
6750,"Musson",49.5581782,5.7056943,"Luxemburg"
6750,"Mussy-La-Ville",49.5706730,5.6620086,"Luxemburg"
6750,"Signeulx",49.5522300,5.6380500,"Luxemburg"
6760,"Bleid",49.5693096,5.6280964,"Luxemburg"
6760,"Ethe",49.5796692,5.5819087,"Luxemburg"
6760,"Ruette",49.5365538,5.5949257,"Luxemburg"
6760,"Virton",49.5871911,5.5862953,"Luxemburg"
6761,"Latour",49.5575295,5.5705855,"Luxemburg"
6762,"Saint-Mard",49.5542548,5.5346766,"Luxemburg"
6767,"Dampicourt",49.5566955,5.4759516,"Luxemburg"
6767,"Harnoncourt",49.5355121,5.4996269,"Luxemburg"
6767,"Lamorteau",49.5259975,5.4807287,"Luxemburg"
6767,"Rouvroy",49.5381200,5.4918900,"Luxemburg"
6767,"Torgny",49.5080762,5.4740405,"Luxemburg"
6769,"Gérouville",49.6204111,5.4269360,"Luxemburg"
6769,"Meix-Devant-Virton",49.6056457,5.4780041,"Luxemburg"
6769,"Robelmont",49.5944837,5.5078905,"Luxemburg"
6769,"Sommethonne",49.5785062,5.4478548,"Luxemburg"
6769,"Villers-La-Loue",49.5745676,5.4821567,"Luxemburg"
6780,"Hondelange",49.6334358,5.8362868,"Luxemburg"
6780,"Messancy",49.6216258,5.8214036,"Luxemburg"
6780,"Wolkrange",49.6337423,5.7994452,"Luxemburg"
6781,"Sélange",49.6093822,5.8466761,"Luxemburg"
6782,"Habergy",49.6142745,5.7596109,"Luxemburg"
6790,"Aubange",49.5608954,5.8088730,"Luxemburg"
6791,"Athus",49.5628647,5.8347138,"Luxemburg"
6792,"Halanzy",49.5565078,5.7432347,"Luxemburg"
6792,"Rachecourt",49.5911813,5.7267117,"Luxemburg"
6800,"Bras",49.9750202,5.3892229,"Luxemburg"
6800,"Freux",49.9699861,5.4504457,"Luxemburg"
6800,"Libramont-Chevigny",49.9184200,5.3745800,"Luxemburg"
6800,"Moircy",49.9895785,5.4695106,"Luxemburg"
6800,"Recogne",49.9110798,5.3602530,"Luxemburg"
6800,"Remagne",49.9766169,5.4943517,"Luxemburg"
6800,"Saint-Pierre",49.9036915,5.3880072,"Luxemburg"
6800,"Sainte-Marie-Chevigny",49.9234787,5.4582979,"Luxemburg"
6810,"Chiny",49.6989693,5.3867430,"Luxemburg"
6810,"Izel",49.6937299,5.3722119,"Luxemburg"
6810,"Jamoigne",49.6948710,5.4146049,"Luxemburg"
6811,"Les Bulles",49.7042122,5.4239144,"Luxemburg"
6812,"Suxy",49.7639751,5.3993485,"Luxemburg"
6813,"Termes",49.7078398,5.4578124,"Luxemburg"
6820,"Florenville",49.7270823,5.2201330,"Luxemburg"
6820,"Fontenoille",49.7150554,5.2343041,"Luxemburg"
6820,"Muno",49.7163845,5.1751412,"Luxemburg"
6820,"Sainte-Cécile",49.7296613,5.2428643,"Luxemburg"
6821,"Lacuisine",49.7163512,5.3173471,"Luxemburg"
6823,"Villers-Devant-Orval",49.6196324,5.3314402,"Luxemburg"
6824,"Chassepierre",49.7076672,5.2603388,"Luxemburg"
6830,"Bouillon",49.7892158,5.0905007,"Luxemburg"
6830,"Les Hayons",49.8129802,5.1453939,"Luxemburg"
6830,"Poupehan",49.8115256,5.0027630,"Luxemburg"
6830,"Rochehaut",49.8411879,5.0076505,"Luxemburg"
6831,"Noirfontaine",49.8202036,5.0942677,"Luxemburg"
6832,"Sensenruth",49.8244628,5.0762113,"Luxemburg"
6833,"Ucimont",49.8317003,5.0584360,"Luxemburg"
6833,"Vivy",49.8668760,5.0384163,"Luxemburg"
6834,"Bellevaux",49.8405538,5.1101023,"Luxemburg"
6836,"Dohan",49.7960885,5.1428394,"Luxemburg"
6838,"Corbion",49.7971683,5.0076838,"Luxemburg"
6840,"Grandvoir",49.8583500,5.3727200,"Luxemburg"
6840,"Grapfontaine",49.8221000,5.4062000,"Luxemburg"
6840,"Hamipré",49.8374900,5.4573500,"Luxemburg"
6840,"Longlier",49.8554400,5.4528800,"Luxemburg"
6840,"NeufchÂteau",49.8417539,5.4341770,"Luxemburg"
6840,"Tournay",49.8546900,5.3976500,"Luxemburg"
6850,"Carlsbourg",49.8947012,5.0822437,"Luxemburg"
6850,"Offagne",49.8861615,5.1749738,"Luxemburg"
6850,"Paliseul",49.9037127,5.1345943,"Luxemburg"
6851,"Nollevaux",49.8712705,5.1210695,"Luxemburg"
6852,"Maissin",49.9646508,5.1791072,"Luxemburg"
6852,"Opont",49.9355975,5.1195934,"Luxemburg"
6853,"Framont",49.9192841,5.1605186,"Luxemburg"
6856,"Fays-Les-Veneurs",49.8665022,5.1613778,"Luxemburg"
6860,"Assenois",49.8015106,5.4651471,"Luxemburg"
6860,"Ebly",49.8531341,5.5404417,"Luxemburg"
6860,"LÉglise",49.8000180,5.5376280,"Luxemburg"
6860,"Mellier",49.7685936,5.5221492,"Luxemburg"
6860,"Witry",49.8596108,5.6131081,"Luxemburg"
6870,"Arville",50.0323784,5.3193343,"Luxemburg"
6870,"Awenne",50.0742236,5.3066608,"Luxemburg"
6870,"Hatrival",50.0050863,5.3451907,"Luxemburg"
6870,"Mirwart",50.0564514,5.2638388,"Luxemburg"
6870,"Saint-Hubert",50.0260067,5.3727272,"Luxemburg"
6870,"Vesqueville",50.0059895,5.3945290,"Luxemburg"
6880,"Auby-Sur-Semois",49.8158343,5.1831373,"Luxemburg"
6880,"Bertrix",49.8542350,5.2535561,"Luxemburg"
6880,"Cugnon",49.8023095,5.2025910,"Luxemburg"
6880,"Jehonville",49.9068245,5.2003751,"Luxemburg"
6880,"Orgeo",49.8364639,5.2995526,"Luxemburg"
6887,"Herbeumont",49.7809500,5.2376000,"Luxemburg"
6887,"Saint-Médard",49.8118200,5.3280500,"Luxemburg"
6887,"Straimont",49.7955100,5.3815000,"Luxemburg"
6890,"Anloy",49.9494863,5.2217260,"Luxemburg"
6890,"Libin",49.9815451,5.2572000,"Luxemburg"
6890,"Ochamps",49.9249054,5.2775069,"Luxemburg"
6890,"Redu",50.0075195,5.1597629,"Luxemburg"
6890,"Smuid",50.0187650,5.2667659,"Luxemburg"
6890,"Transinne",50.0005430,5.2035647,"Luxemburg"
6890,"Villance",49.9710047,5.2204298,"Luxemburg"
6900,"Aye",50.2249300,5.2969500,"Luxemburg"
6900,"Hargimont",50.1862400,5.3062500,"Luxemburg"
6900,"Humain",50.2050100,5.2566100,"Luxemburg"
6900,"Marche-En-Famenne",50.2282896,5.3441606,"Luxemburg"
6900,"On",50.1738200,5.2878300,"Luxemburg"
6900,"Roy",50.1858600,5.4070700,"Luxemburg"
6900,"Waha",50.2119100,5.3429600,"Luxemburg"
6920,"Sohier",50.0683180,5.0678053,"Luxemburg"
6920,"Wellin",50.0575065,5.0650474,"Luxemburg"
6921,"Chanly",50.0796147,5.1540758,"Luxemburg"
6922,"Halma",50.0757255,5.1363449,"Luxemburg"
6924,"Lomprez",50.0762069,5.0923960,"Luxemburg"
6927,"Bure",50.0883647,5.2594882,"Luxemburg"
6927,"Grupont",50.0917339,5.2801805,"Luxemburg"
6927,"Resteigne",50.0836994,5.1761749,"Luxemburg"
6927,"Tellin",50.0833973,5.2208099,"Luxemburg"
6929,"Daverdisse",50.0203010,5.1182335,"Luxemburg"
6929,"Gembes",49.9948698,5.0656928,"Luxemburg"
6929,"Haut-Fays",50.0011935,5.0175845,"Luxemburg"
6929,"Porcheresse",49.9782394,5.0870126,"Luxemburg"
6940,"Barvaux-Sur-Ourthe",50.3506400,5.4930600,"Luxemburg"
6940,"Durbuy",50.3350543,5.4345624,"Luxemburg"
6940,"Grandhan",50.3294600,5.4113200,"Luxemburg"
6940,"Septon",50.3550600,5.4216800,"Luxemburg"
6940,"Wéris",50.3261200,5.5304800,"Luxemburg"
6941,"Bende",50.4195400,5.4154400,"Luxemburg"
6941,"Bomal-Sur-Ourthe",50.3790100,5.5234800,"Luxemburg"
6941,"Borlon",50.3790000,5.4051100,"Luxemburg"
6941,"Heyd",50.3472500,5.5618800,"Luxemburg"
6941,"Izier",50.3838030,5.5795356,"Luxemburg"
6941,"Tohogne",50.3797500,5.4801300,"Luxemburg"
6941,"Villers-Sainte-Gertrude",50.3616152,5.5800674,"Luxemburg"
6950,"Harsin",50.1735662,5.3479488,"Luxemburg"
6950,"Nassogne",50.1109477,5.3664669,"Luxemburg"
6951,"Bande",50.1670102,5.4155200,"Luxemburg"
6952,"Grune",50.1547678,5.3812924,"Luxemburg"
6953,"Ambly",50.1443527,5.3117953,"Luxemburg"
6953,"Forrières",50.1338181,5.2807925,"Luxemburg"
6953,"Lesterny",50.1116414,5.2801707,"Luxemburg"
6953,"Masbourg",50.1134100,5.3137400,"Luxemburg"
6960,"Dochamps",50.2327700,5.6234300,"Luxemburg"
6960,"Grandmenil",50.2905100,5.6598900,"Luxemburg"
6960,"Harre",50.3505500,5.6561700,"Luxemburg"
6960,"Malempré",50.2817300,5.7124300,"Luxemburg"
6960,"Manhay",50.2908885,5.6614499,"Luxemburg"
6960,"Odeigne",50.2569300,5.6802200,"Luxemburg"
6960,"Vaux-Chavanne",50.3048400,5.6912300,"Luxemburg"
6970,"Tenneville",50.0859055,5.4613070,"Luxemburg"
6971,"Champlon",50.1074532,5.5021264,"Luxemburg"
6972,"Erneuville",50.1128285,5.5493302,"Luxemburg"
6980,"Beausaint",50.1700454,5.5539293,"Luxemburg"
6980,"La Roche-En-Ardenne",50.1845991,5.5556243,"Luxemburg"
6982,"Samrée",50.2112349,5.6342111,"Luxemburg"
6983,"Ortho",50.1250676,5.6139791,"Luxemburg"
6984,"Hives",50.1505142,5.5776532,"Luxemburg"
6986,"Halleux",50.1721642,5.5010126,"Luxemburg"
6987,"Beffe",50.2450200,5.5235500,"Luxemburg"
6987,"Hodister",50.1999000,5.4960300,"Luxemburg"
6987,"Marcourt",50.2144500,5.5316100,"Luxemburg"
6987,"Rendeux",50.2348339,5.5081521,"Luxemburg"
6990,"Fronville",50.2944800,5.4220800,"Luxemburg"
6990,"Hampteau",50.2586700,5.4704200,"Luxemburg"
6990,"Hotton",50.2672800,5.4456800,"Luxemburg"
6990,"Marenne",50.2425100,5.4163900,"Luxemburg"
6997,"Amonines",50.2647400,5.5580900,"Luxemburg"
6997,"ErezÉe",50.2917200,5.5585300,"Luxemburg"
6997,"Mormont",50.3254541,5.5930056,"Luxemburg"
6997,"Soy",50.2856400,5.5110700,"Luxemburg"
7000,"Mons",50.4542165,3.9566904,"Henegouwen"
7010,"Shape",50.4969668,3.9821153,"Henegouwen"
7011,"Ghlin",50.4642964,3.8877424,"Henegouwen"
7012,"Flénu",50.4336915,3.8889901,"Henegouwen"
7012,"Jemappes",50.4479352,3.8990501,"Henegouwen"
7020,"Maisières",50.4885712,3.9653190,"Henegouwen"
7020,"Nimy",50.4765848,3.9552523,"Henegouwen"
7021,"Havre",50.4639119,4.0453246,"Henegouwen"
7022,"Harmignies",50.4060459,4.0174614,"Henegouwen"
7022,"Harveng",50.3946189,3.9871020,"Henegouwen"
7022,"Hyon",50.4395855,3.9607279,"Henegouwen"
7022,"Mesvin",50.4259641,3.9582718,"Henegouwen"
7022,"Nouvelles",50.4104361,3.9671418,"Henegouwen"
7024,"Ciply",50.4219839,3.9462109,"Henegouwen"
7030,"Saint-Symphorien",50.4378687,4.0118304,"Henegouwen"
7031,"Villers-Saint-Ghislain",50.4320932,4.0409306,"Henegouwen"
7032,"Spiennes",50.4251859,3.9893210,"Henegouwen"
7033,"Cuesmes",50.4362266,3.9240678,"Henegouwen"
7034,"Obourg",50.4742413,4.0091225,"Henegouwen"
7034,"Saint-Denis",50.4910335,4.0192594,"Henegouwen"
7040,"Asquillies",50.4006600,3.9544700,"Henegouwen"
7040,"Aulnois",50.3404800,3.9020000,"Henegouwen"
7040,"Blaregnies",50.3571500,3.8970400,"Henegouwen"
7040,"Bougnies",50.3869400,3.9386300,"Henegouwen"
7040,"Genly",50.3910334,3.9121820,"Henegouwen"
7040,"Goegnies-Chaussée",50.3423500,3.9468600,"Henegouwen"
7040,"QuÉvy",50.3543123,3.9274387,"Henegouwen"
7040,"Quévy-Le-Grand",50.3606500,3.9472100,"Henegouwen"
7040,"Quévy-Le-Petit",50.3685400,3.9335100,"Henegouwen"
7041,"Givry",50.3794300,4.0358400,"Henegouwen"
7041,"Havay",50.3615500,3.9833700,"Henegouwen"
7050,"Erbaut",50.5329492,3.8841662,"Henegouwen"
7050,"Erbisoeul",50.5161101,3.8966431,"Henegouwen"
7050,"Herchies",50.5275483,3.8576244,"Henegouwen"
7050,"Jurbise",50.5329145,3.9106591,"Henegouwen"
7050,"Masnuy-Saint-Jean",50.5310497,3.9451238,"Henegouwen"
7050,"Masnuy-Saint-Pierre",50.5364971,3.9608630,"Henegouwen"
7060,"Horrues",50.6085349,4.0427256,"Henegouwen"
7060,"Soignies",50.5777389,4.0573135,"Henegouwen"
7061,"Casteau",50.5159354,4.0133385,"Henegouwen"
7061,"Thieusies",50.5151741,4.0482964,"Henegouwen"
7062,"Naast",50.5543555,4.0991332,"Henegouwen"
7063,"Chaussée-Notre-Dame-Louvignies",50.5927405,3.9983062,"Henegouwen"
7063,"Neufvilles",50.5685485,4.0026575,"Henegouwen"
7070,"Gottignies",50.4965700,4.0603100,"Henegouwen"
7070,"Le Roeulx",50.5029297,4.1087311,"Henegouwen"
7070,"Mignault",50.5280000,4.1531300,"Henegouwen"
7070,"Thieu",50.4736300,4.0915200,"Henegouwen"
7070,"Ville-Sur-Haine",50.4752900,4.0691300,"Henegouwen"
7080,"Eugies",50.3902100,3.8877700,"Henegouwen"
7080,"Frameries",50.4109400,3.8955100,"Henegouwen"
7080,"La Bouverie",50.4109300,3.8719200,"Henegouwen"
7080,"Noirchain",50.4017600,3.9321800,"Henegouwen"
7080,"Sars-La-Bruyère",50.3724700,3.8761100,"Henegouwen"
7090,"Braine-Le-Comte",50.6093600,4.1348400,"Henegouwen"
7090,"Hennuyères",50.6384300,4.1696000,"Henegouwen"
7090,"Henripont",50.5993300,4.1854000,"Henegouwen"
7090,"Petit-Roeulx-Lez-Braine",50.6253900,4.0886000,"Henegouwen"
7090,"Ronquières",50.6079000,4.2209400,"Henegouwen"
7090,"Steenkerque",50.6432500,4.0692200,"Henegouwen"
7100,"Haine-Saint-Paul",50.4531300,4.1912600,"Henegouwen"
7100,"Haine-Saint-Pierre",50.4541300,4.1996000,"Henegouwen"
7100,"La LouviÈre",50.4693850,4.1892216,"Henegouwen"
7100,"Saint-Vaast",50.4543100,4.1603600,"Henegouwen"
7100,"Trivières",50.4504100,4.1480200,"Henegouwen"
7110,"Boussoit",50.4602200,4.0778300,"Henegouwen"
7110,"Houdeng-Aimeries",50.4857800,4.1446000,"Henegouwen"
7110,"Houdeng-Goegnies",50.4881500,4.1542800,"Henegouwen"
7110,"Maurage",50.4567000,4.0992700,"Henegouwen"
7110,"Strépy-Bracquegnies",50.4805500,4.1200000,"Henegouwen"
7120,"Croix-Lez-Rouveroy",50.3615200,4.0769200,"Henegouwen"
7120,"Estinnes",50.4037945,4.1040785,"Henegouwen"
7120,"Estinnes-Au-Mont",50.3965200,4.0962300,"Henegouwen"
7120,"Estinnes-Au-Val",50.4111500,4.1040700,"Henegouwen"
7120,"Fauroeulx",50.3702200,4.1104000,"Henegouwen"
7120,"Haulchin",50.3843000,4.0818800,"Henegouwen"
7120,"Peissant",50.3510600,4.1201500,"Henegouwen"
7120,"Rouveroy",50.3554400,4.0621300,"Henegouwen"
7120,"Vellereille-Le-Sec",50.4019500,4.0584700,"Henegouwen"
7120,"Vellereille-Les-Brayeux",50.3793000,4.1519500,"Henegouwen"
7130,"Battignies",50.4169100,4.1688900,"Henegouwen"
7130,"Binche",50.4278907,4.1185307,"Henegouwen"
7130,"Bray",50.4316400,4.1054300,"Henegouwen"
7131,"Waudrez",50.4133200,4.1494800,"Henegouwen"
7133,"Buvrinnes",50.3887300,4.2052400,"Henegouwen"
7134,"Epinois",50.4055800,4.2072800,"Henegouwen"
7134,"Leval-Trahegnies",50.4165300,4.2176600,"Henegouwen"
7134,"Péronnes-Lez-Binche",50.4372200,4.1487400,"Henegouwen"
7134,"Ressaix",50.4218800,4.1947500,"Henegouwen"
7140,"Morlanwelz",50.4523812,4.2297719,"Henegouwen"
7140,"Morlanwelz-Mariemont",50.4580800,4.2473900,"Henegouwen"
7141,"Carnières",50.4413900,4.2549000,"Henegouwen"
7141,"Mont-Sainte-Aldegonde",50.4305600,4.2334500,"Henegouwen"
7160,"Chapelle-Lez-Herlaimont",50.4712400,4.2808200,"Henegouwen"
7160,"Godarville",50.4962600,4.2884200,"Henegouwen"
7160,"Piéton",50.4374900,4.2962200,"Henegouwen"
7170,"Bellecourt",50.4830700,4.2543800,"Henegouwen"
7170,"Bois-D'haine",50.5040700,4.2210800,"Henegouwen"
7170,"Fayt-Lez-Manage",50.4870600,4.2276400,"Henegouwen"
7170,"La Hestre",50.4759190,4.2299939,"Henegouwen"
7170,"Manage",50.5030300,4.2352900,"Henegouwen"
7180,"Seneffe",50.5285674,4.2721491,"Henegouwen"
7181,"Arquennes",50.5678375,4.2748602,"Henegouwen"
7181,"Familleureux",50.5228620,4.2110894,"Henegouwen"
7181,"Feluy",50.5622070,4.2502650,"Henegouwen"
7181,"Petit-Roeulx-Lez-Nivelles",50.5548179,4.3107658,"Henegouwen"
7190,"Ecaussinnes",50.5606000,4.1724000,"Henegouwen"
7190,"Ecaussinnes-D'enghien",50.5608812,4.1538788,"Henegouwen"
7190,"Marche-Lez-Ecaussinnes",50.5469243,4.1819002,"Henegouwen"
7191,"Ecaussinnes-Lalaing",50.5700581,4.1775465,"Henegouwen"
7300,"Boussu",50.4258770,3.7969506,"Henegouwen"
7301,"Hornu",50.4363400,3.8262700,"Henegouwen"
7320,"Bernissart",50.4824696,3.6459245,"Henegouwen"
7321,"Blaton",50.4992803,3.6598433,"Henegouwen"
7321,"Harchies",50.4803048,3.6946534,"Henegouwen"
7322,"Pommeroeul",50.4623107,3.7129612,"Henegouwen"
7322,"Ville-Pommeroeul",50.4708319,3.7293137,"Henegouwen"
7330,"Saint-Ghislain",50.4490864,3.8183635,"Henegouwen"
7331,"Baudour",50.4832756,3.8377399,"Henegouwen"
7332,"Neufmaison",50.5293542,3.7936731,"Henegouwen"
7332,"Sirault",50.5041746,3.7899285,"Henegouwen"
7333,"Tertre",50.4668162,3.8118542,"Henegouwen"
7334,"Hautrage",50.4792056,3.7659709,"Henegouwen"
7334,"Villerot",50.4865886,3.7905933,"Henegouwen"
7340,"Colfontaine",50.4142300,3.8459800,"Henegouwen"
7340,"Paturages",50.4048263,3.8383261,"Henegouwen"
7340,"Warquignies",50.4010549,3.8216781,"Henegouwen"
7340,"Wasmes",50.4219636,3.8449946,"Henegouwen"
7350,"Hainin",50.4306618,3.7656597,"Henegouwen"
7350,"Hensies",50.4324440,3.6844458,"Henegouwen"
7350,"Montroeul-Sur-Haine",50.4355247,3.7039398,"Henegouwen"
7350,"Thulin",50.4290487,3.7391863,"Henegouwen"
7370,"Blaugies",50.3720160,3.8058371,"Henegouwen"
7370,"Dour",50.4000125,3.7827922,"Henegouwen"
7370,"Elouges",50.4025947,3.7522644,"Henegouwen"
7370,"Wihéries",50.3854730,3.7525313,"Henegouwen"
7380,"Baisieux",50.3905880,3.6975230,"Henegouwen"
7380,"QuiÉvrain",50.4034322,3.6904002,"Henegouwen"
7382,"Audregnies",50.3830616,3.7175716,"Henegouwen"
7387,"Angre",50.3683900,3.6981300,"Henegouwen"
7387,"Angreau",50.3506400,3.6908100,"Henegouwen"
